$GPRMC,130048.000,A,4849.8737,N,00221.3001,E,9.12,134.61,180806,,*08
$GPVTG,134.61,T,,M,9.12,N,16.9,K*55
$GPGGA,130049.000,4849.8715,N,00221.3034,E,1,08,1.0,60.5,M,47.3,M,,0000*66
$GPGSA,A,3,26,29,28,09,17,18,05,22,,,,,1.9,1.0,1.7*3B
$GPGSV,2,1,08,26,65,146,31,29,59,146,26,09,55,280,30,18,36,284,33*76
$GPGSV,2,2,08,17,29,095,30,28,27,050,32,05,19,217,28,22,16,321,34*7B
$GPRMC,130049.000,A,4849.8715,N,00221.3034,E,9.92,126.96,180806,,*0C
$GPVTG,126.96,T,,M,9.92,N,18.4,K*55
$GPGGA,130050.000,4849.8695,N,00221.3083,E,1,08,1.0,60.9,M,47.3,M,,0000*67
$GPGSA,A,3,26,29,28,09,17,18,05,22,,,,,1.9,1.0,1.7*3B
$GPGSV,2,1,08,26,65,146,31,29,59,146,19,09,55,280,30,18,36,284,36*7F
$GPGSV,2,2,08,17,29,095,31,28,27,050,34,05,19,217,31,22,16,321,33*73
$GPRMC,130050.000,A,4849.8695,N,00221.3083,E,12.86,119.69,180806,,*32
$GPVTG,119.69,T,,M,12.86,N,23.8,K*62
$GPGGA,130051.000,4849.8675,N,00221.3140,E,1,08,1.0,61.8,M,47.3,M,,0000*66
$GPGSA,A,3,26,29,28,09,17,18,05,22,,,,,1.9,1.0,1.7*3B
$GPGSV,2,1,08,26,65,146,27,29,59,146,24,09,55,280,30,18,36,284,36*76
$GPGSV,2,2,08,17,29,095,30,28,27,050,28,05,19,217,32,22,16,321,34*7B
$GPRMC,130051.000,A,4849.8675,N,00221.3140,E,13.68,114.87,180806,,*3F
$GPVTG,114.87,T,,M,13.68,N,25.3,K*63
$GPGGA,130052.000,4849.8657,N,00221.3197,E,1,08,1.0,62.1,M,47.3,M,,0000*65
$GPGSA,A,3,26,29,28,09,17,18,05,22,,,,,1.9,1.0,1.7*3B
$GPGSV,2,1,08,26,65,146,24,29,59,146,31,09,55,280,30,18,36,284,33*74
$GPGSV,2,2,08,17,29,095,30,28,27,050,26,05,19,217,25,22,16,321,34*73
$GPRMC,130052.000,A,4849.8657,N,00221.3197,E,14.27,114.39,180806,,*3F
$GPVTG,114.39,T,,M,14.27,N,26.4,K*6E
$GPGGA,130053.000,4849.8643,N,00221.3255,E,1,08,1.0,62.1,M,47.3,M,,0000*6C
$GPGSA,A,3,26,29,28,09,17,18,05,22,,,,,1.9,1.0,1.7*3B
$GPGSV,2,1,08,26,65,146,24,29,59,146,32,09,55,280,30,18,36,284,30*74
$GPGSV,2,2,08,17,29,095,29,28,27,050,30,05,19,217,20,22,16,321,34*79
$GPRMC,130053.000,A,4849.8643,N,00221.3255,E,13.37,108.44,180806,,*37
$GPVTG,108.44,T,,M,13.37,N,24.8,K*61
$GPGGA,130054.000,4849.8633,N,00221.3306,E,1,08,1.0,62.8,M,47.3,M,,0000*62
$GPGSA,A,3,26,29,28,09,17,18,05,22,,,,,1.9,1.0,1.7*3B
$GPGSV,2,1,08,26,65,146,23,29,59,146,32,09,55,280,30,18,36,284,27*75
$GPGSV,2,2,08,17,29,095,29,28,27,050,31,05,19,217,19,22,16,321,34*72
$GPRMC,130054.000,A,4849.8633,N,00221.3306,E,11.78,109.22,180806,,*38
$GPVTG,109.22,T,,M,11.78,N,21.8,K*6C
$GPGGA,130055.000,4849.8621,N,00221.3356,E,1,08,1.0,62.7,M,47.3,M,,0000*6A
$GPGSA,A,3,26,29,28,09,17,18,05,22,,,,,1.9,1.0,1.7*3B
$GPGSV,2,1,08,26,65,146,23,29,59,146,32,09,55,280,30,18,36,284,27*75
$GPGSV,2,2,08,17,29,095,29,28,27,050,32,05,19,217,18,22,16,321,31*75
$GPRMC,130055.000,A,4849.8621,N,00221.3356,E,11.59,110.94,180806,,*39
$GPVTG,110.94,T,,M,11.59,N,21.5,K*67
$GPGGA,130056.000,4849.8609,N,00221.3401,E,1,08,1.0,63.7,M,47.3,M,,0000*67
$GPGSA,A,3,26,29,28,09,17,18,05,22,,,,,1.9,1.0,1.7*3B
$GPGSV,2,1,08,26,65,146,24,29,59,146,32,09,55,280,32,18,36,284,28*7F
$GPGSV,2,2,08,17,29,095,29,28,27,050,32,05,19,217,17,22,16,321,30*7B
$GPRMC,130056.000,A,4849.8609,N,00221.3401,E,9.98,110.52,180806,,*0B
$GPVTG,110.52,T,,M,9.98,N,18.5,K*53
$GPGGA,130057.000,4849.8597,N,00221.3437,E,1,08,1.0,65.3,M,47.3,M,,0000*65
$GPGSA,A,3,26,29,28,09,17,18,05,22,,,,,1.9,1.0,1.7*3B
$GPGSV,2,1,08,26,65,146,24,29,59,146,32,09,55,280,34,18,36,284,33*73
$GPGSV,2,2,08,17,29,095,25,28,27,050,29,05,19,217,18,22,16,321,32*70
$GPRMC,130057.000,A,4849.8597,N,00221.3437,E,9.01,112.70,180806,,*09
$GPVTG,112.70,T,,M,9.01,N,16.7,K*5D
$GPGGA,130058.000,4849.8585,N,00221.3465,E,1,07,2.2,66.3,M,47.3,M,,0000*63
$GPGSA,A,3,26,29,28,09,17,18,22,,,,,,4.3,2.2,3.7*32
$GPGSV,2,1,08,26,65,146,28,29,59,146,22,09,55,280,35,18,36,284,34*78
$GPGSV,2,2,08,17,29,095,23,28,27,050,27,05,19,217,18,22,16,321,31*7B
$GPRMC,130058.000,A,4849.8585,N,00221.3465,E,7.43,121.59,180806,,*01
$GPVTG,121.59,T,,M,7.43,N,13.8,K*54
$GPGGA,130059.000,4849.8571,N,00221.3482,E,1,07,2.2,67.7,M,47.3,M,,0000*65
$GPGSA,A,3,26,29,28,09,17,18,22,,,,,,4.3,2.2,3.7*32
$GPGSV,2,1,08,26,65,146,28,29,59,146,22,09,55,280,35,18,36,284,34*78
$GPGSV,2,2,08,17,29,095,24,28,27,050,29,05,19,217,18,22,16,321,31*72
$GPRMC,130059.000,A,4849.8571,N,00221.3482,E,5.40,135.86,180806,,*04
$GPVTG,135.86,T,,M,5.40,N,10.0,K*59
$GPGGA,130100.000,4849.8555,N,00221.3487,E,1,07,2.2,68.6,M,47.3,M,,0000*65
$GPGSA,A,3,26,29,28,09,17,18,22,,,,,,4.3,2.2,3.7*32
$GPGSV,2,1,08,26,65,146,28,29,59,146,23,09,55,280,36,18,36,284,33*7D
$GPGSV,2,2,08,17,29,095,24,28,27,050,29,05,19,217,18,22,16,321,31*72
$GPRMC,130100.000,A,4849.8555,N,00221.3487,E,3.40,138.09,180806,,*06
$GPVTG,138.09,T,,M,3.40,N,6.3,K*61
$GPGGA,130101.000,4849.8548,N,00221.3493,E,1,07,2.2,69.5,M,47.3,M,,0000*6F
$GPGSA,A,3,26,29,28,09,17,18,22,,,,,,4.3,2.2,3.7*32
$GPGSV,2,1,08,26,65,146,28,29,59,146,23,09,55,280,36,18,36,284,33*7D
$GPGSV,2,2,08,17,29,095,25,28,27,050,29,05,19,217,18,22,16,321,31*73
$GPRMC,130101.000,A,4849.8548,N,00221.3493,E,1.43,108.86,180806,,*0B
$GPVTG,108.86,T,,M,1.43,N,2.6,K*65
$GPGGA,130102.000,4849.8545,N,00221.3499,E,1,07,2.2,68.5,M,47.3,M,,0000*6A
$GPGSA,A,3,26,29,28,09,17,18,22,,,,,,4.3,2.2,3.7*32
$GPGSV,2,1,08,26,65,146,27,29,59,146,28,09,55,280,36,18,36,284,34*7E
$GPGSV,2,2,08,17,29,095,25,28,27,050,29,05,19,217,18,22,16,321,31*73
$GPRMC,130102.000,A,4849.8545,N,00221.3499,E,0.78,96.25,180806,,*39
$GPVTG,96.25,T,,M,0.78,N,1.4,K*52
$GPGGA,130103.000,4849.8545,N,00221.3504,E,1,07,2.2,67.5,M,47.3,M,,0000*61
$GPGSA,A,3,26,29,28,09,17,18,22,,,,,,4.3,2.2,3.7*32
$GPGSV,2,1,08,26,65,146,27,29,59,146,30,09,55,280,36,18,36,284,34*77
$GPGSV,2,2,08,17,29,095,25,28,27,050,21,05,19,217,18,22,16,321,25*7E
$GPRMC,130103.000,A,4849.8545,N,00221.3504,E,0.26,331.07,180806,,*08
$GPVTG,331.07,T,,M,0.26,N,0.5,K*67
$GPGGA,130104.000,4849.8546,N,00221.3508,E,1,07,2.3,67.6,M,47.3,M,,0000*6B
$GPGSA,A,3,26,29,28,09,17,18,22,,,,,,4.3,2.3,3.7*33
$GPGSV,2,1,08,26,65,146,27,29,59,146,30,09,55,280,36,18,36,284,34*77
$GPGSV,2,2,08,17,29,095,26,28,27,050,19,05,19,217,18,22,16,321,25*76
$GPRMC,130104.000,A,4849.8546,N,00221.3508,E,0.63,37.53,180806,,*35
$GPVTG,37.53,T,,M,0.63,N,1.2,K*54
$GPGGA,130105.000,4849.8545,N,00221.3509,E,1,07,2.3,66.9,M,47.3,M,,0000*66
$GPGSA,A,3,26,29,28,09,17,18,22,,,,,,4.3,2.3,3.7*33
$GPGSV,2,1,08,26,65,146,28,29,59,146,30,09,55,280,36,18,36,284,34*78
$GPGSV,2,2,08,17,29,095,26,28,27,050,20,05,19,217,19,22,16,321,26*7E
$GPRMC,130105.000,A,4849.8545,N,00221.3509,E,1.02,205.44,180806,,*05
$GPVTG,205.44,T,,M,1.02,N,1.9,K*6C
$GPGGA,130106.000,4849.8546,N,00221.3510,E,1,07,2.3,67.2,M,47.3,M,,0000*64
$GPGSA,A,3,26,29,28,09,17,18,22,,,,,,4.3,2.3,3.7*33
$GPGSV,2,1,08,26,65,146,28,29,59,146,30,09,55,280,36,18,36,284,35*79
$GPGSV,2,2,08,17,29,095,26,28,27,050,21,05,19,217,19,22,16,321,26*7F
$GPRMC,130106.000,A,4849.8546,N,00221.3510,E,0.17,52.00,180806,,*38
$GPVTG,52.00,T,,M,0.17,N,0.3,K*52
$GPGGA,130107.000,4849.8547,N,00221.3511,E,1,07,2.3,67.3,M,47.3,M,,0000*64
$GPGSA,A,3,26,29,28,09,17,18,22,,,,,,4.3,2.3,3.7*33
$GPGSV,2,1,08,26,65,146,28,29,59,146,30,09,55,280,36,18,36,284,35*79
$GPGSV,2,2,08,17,29,095,26,28,27,050,25,05,19,217,19,22,16,321,26*7B
$GPRMC,130107.000,A,4849.8547,N,00221.3511,E,0.17,204.06,180806,,*0E
$GPVTG,204.06,T,,M,0.17,N,0.3,K*65
$GPGGA,130108.000,4849.8547,N,00221.3512,E,1,07,2.3,67.4,M,47.3,M,,0000*6F
$GPGSA,A,3,26,29,28,09,17,18,22,,,,,,4.3,2.3,3.7*33
$GPGSV,2,1,08,26,65,146,28,29,59,146,30,09,55,280,36,18,36,284,35*79
$GPGSV,2,2,08,17,29,095,26,28,27,050,27,05,19,217,19,22,16,321,26*79
$GPRMC,130108.000,A,4849.8547,N,00221.3512,E,0.10,169.91,180806,,*03
$GPVTG,169.91,T,,M,0.10,N,0.2,K*65
$GPGGA,130109.000,4849.8548,N,00221.3516,E,1,07,2.3,66.7,M,47.3,M,,0000*67
$GPGSA,A,3,26,29,28,09,17,18,22,,,,,,4.3,2.3,3.7*33
$GPGSV,2,1,08,26,65,146,28,29,59,146,30,09,55,280,36,18,36,284,35*79
$GPGSV,2,2,08,17,29,095,26,28,27,050,28,05,19,217,19,22,16,321,26*76
$GPRMC,130109.000,A,4849.8548,N,00221.3516,E,0.29,137.13,180806,,*02
$GPVTG,137.13,T,,M,0.29,N,0.5,K*69
$GPGGA,130110.000,4849.8548,N,00221.3520,E,1,07,2.3,65.8,M,47.3,M,,0000*66
$GPGSA,A,3,26,29,28,09,17,18,22,,,,,,4.3,2.3,3.7*33
$GPGSV,2,1,08,26,65,146,20,29,59,146,30,09,55,280,36,18,36,284,35*71
$GPGSV,2,2,08,17,29,095,26,28,27,050,28,05,19,217,19,22,16,321,26*76
$GPRMC,130110.000,A,4849.8548,N,00221.3520,E,0.31,154.98,180806,,*00
$GPVTG,154.98,T,,M,0.31,N,0.6,K*65
$GPGGA,130111.000,4849.8548,N,00221.3524,E,1,07,2.3,65.4,M,47.3,M,,0000*6F
$GPGSA,A,3,26,29,28,09,17,18,22,,,,,,4.3,2.3,3.7*33
$GPGSV,2,1,08,26,65,146,19,29,59,146,30,09,55,280,36,18,36,284,35*7B
$GPGSV,2,2,08,17,29,095,26,28,27,050,29,05,19,217,19,22,16,321,26*77
$GPRMC,130111.000,A,4849.8548,N,00221.3524,E,0.02,164.25,180806,,*00
$GPVTG,164.25,T,,M,0.02,N,0.0,K*66
$GPGGA,130112.000,4849.8549,N,00221.3526,E,1,07,2.3,65.1,M,47.3,M,,0000*6A
$GPGSA,A,3,26,29,28,09,17,18,22,,,,,,4.3,2.3,3.7*33
$GPGSV,2,1,08,26,65,146,21,29,59,146,31,09,55,280,36,18,36,284,35*71
$GPGSV,2,2,08,17,29,095,26,28,27,050,29,05,19,217,19,22,16,321,26*77
$GPRMC,130112.000,A,4849.8549,N,00221.3526,E,0.21,134.30,180806,,*00
$GPVTG,134.30,T,,M,0.21,N,0.4,K*62
$GPGGA,130113.000,4849.8550,N,00221.3530,E,1,07,2.3,65.3,M,47.3,M,,0000*66
$GPGSA,A,3,26,29,28,09,17,18,22,,,,,,4.3,2.3,3.7*33
$GPGSV,2,1,08,26,65,146,28,29,59,146,31,09,55,280,36,18,36,284,35*78
$GPGSV,2,2,08,17,29,095,26,28,27,050,29,05,19,217,19,22,16,321,26*77
$GPRMC,130113.000,A,4849.8550,N,00221.3530,E,0.19,191.85,180806,,*04
$GPVTG,191.85,T,,M,0.19,N,0.4,K*68
$GPGGA,130114.000,4849.8552,N,00221.3532,E,1,07,2.3,65.6,M,47.3,M,,0000*64
$GPGSA,A,3,26,29,28,09,17,18,22,,,,,,4.3,2.3,3.7*33
$GPGSV,2,1,08,26,65,146,26,29,59,146,31,09,55,280,36,18,36,284,35*76
$GPGSV,2,2,08,17,29,095,26,28,27,050,33,05,19,217,19,22,16,321,30*7B
$GPRMC,130114.000,A,4849.8552,N,00221.3532,E,0.10,55.79,180806,,*30
$GPVTG,55.79,T,,M,0.10,N,0.2,K*5D
$GPGGA,130115.000,4849.8553,N,00221.3541,E,1,07,2.3,64.3,M,47.3,M,,0000*64
$GPGSA,A,3,26,29,28,09,17,18,22,,,,,,4.3,2.3,3.7*33
$GPGSV,2,1,08,26,65,146,21,29,59,146,31,09,55,280,36,18,36,284,31*75
$GPGSV,2,2,08,17,29,095,27,28,27,050,34,05,19,217,19,22,16,321,32*7F
$GPRMC,130115.000,A,4849.8553,N,00221.3541,E,0.23,143.65,180806,,*0F
$GPVTG,143.65,T,,M,0.23,N,0.4,K*60
$GPGGA,130116.000,4849.8554,N,00221.3546,E,1,07,2.3,63.0,M,47.3,M,,0000*63
$GPGSA,A,3,26,29,28,09,17,18,22,,,,,,4.3,2.3,3.7*33
$GPGSV,2,1,08,26,65,146,21,29,59,146,31,09,55,280,35,18,36,284,28*7E
$GPGSV,2,2,08,17,29,095,27,28,27,050,34,05,19,217,18,22,16,321,32*7E
$GPRMC,130116.000,A,4849.8554,N,00221.3546,E,0.00,233.59,180806,,*06
$GPVTG,233.59,T,,M,0.00,N,0.0,K*6E
$GPGGA,130117.000,4849.8556,N,00221.3549,E,1,07,2.3,61.7,M,47.3,M,,0000*6A
$GPGSA,A,3,26,29,28,09,17,18,22,,,,,,4.3,2.3,3.7*33
$GPGSV,2,1,08,26,65,146,21,29,58,146,31,09,55,280,35,18,36,284,29*7E
$GPGSV,2,2,08,17,30,095,27,28,26,050,35,05,19,217,18,22,16,320,32*77
$GPRMC,130117.000,A,4849.8556,N,00221.3549,E,0.30,171.91,180806,,*08
$GPVTG,171.91,T,,M,0.30,N,0.6,K*6A
$GPGGA,130118.000,4849.8557,N,00221.3553,E,1,07,2.3,60.9,M,47.3,M,,0000*60
$GPGSA,A,3,26,29,28,09,17,18,22,,,,,,4.3,2.3,3.7*33
$GPGSV,2,1,08,26,65,146,22,29,58,146,31,09,55,280,35,18,36,284,29*7D
$GPGSV,2,2,08,17,30,095,27,28,26,050,35,05,19,217,13,22,16,320,32*7C
$GPRMC,130118.000,A,4849.8557,N,00221.3553,E,0.11,178.07,180806,,*08
$GPVTG,178.07,T,,M,0.11,N,0.2,K*6B
$GPGGA,130119.000,4849.8557,N,00221.3556,E,1,07,2.3,60.1,M,47.3,M,,0000*6C
$GPGSA,A,3,26,29,28,09,17,18,22,,,,,,4.3,2.3,3.7*33
$GPGSV,2,1,08,26,65,146,23,29,58,146,31,09,55,280,32,18,36,284,29*7B
$GPGSV,2,2,08,17,30,095,27,28,26,050,35,05,19,217,07,22,16,320,28*72
$GPRMC,130119.000,A,4849.8557,N,00221.3556,E,1.18,151.49,180806,,*05
$GPVTG,151.49,T,,M,1.18,N,2.2,K*60
$GPGGA,130120.000,4849.8553,N,00221.3565,E,1,07,2.3,60.5,M,47.3,M,,0000*66
$GPGSA,A,3,26,29,28,09,17,18,22,,,,,,4.3,2.3,3.7*33
$GPGSV,2,1,08,26,65,146,23,29,58,146,31,09,55,280,29,18,36,284,29*71
$GPGSV,2,2,08,17,30,095,28,28,26,050,35,05,19,217,07,22,16,320,30*74
$GPRMC,130120.000,A,4849.8553,N,00221.3565,E,4.37,124.04,180806,,*08
$GPVTG,124.04,T,,M,4.37,N,8.1,K*6A
$GPGGA,130121.000,4849.8543,N,00221.3582,E,1,07,2.3,60.6,M,47.3,M,,0000*6C
$GPGSA,A,3,26,29,28,09,17,18,22,,,,,,4.3,2.3,3.7*33
$GPGSV,2,1,08,26,65,146,23,29,58,146,32,09,55,280,29,18,36,284,29*72
$GPGSV,2,2,08,17,30,095,28,28,26,050,34,05,19,217,,22,16,320,30*72
$GPRMC,130121.000,A,4849.8543,N,00221.3582,E,6.88,117.32,180806,,*02
$GPVTG,117.32,T,,M,6.88,N,12.7,K*54
$GPGGA,130122.000,4849.8533,N,00221.3612,E,1,07,2.3,60.6,M,47.3,M,,0000*62
$GPGSA,A,3,26,29,28,09,17,18,22,,,,,,4.3,2.3,3.7*33
$GPGSV,2,1,08,26,65,146,24,29,58,146,32,09,55,280,29,18,36,284,35*78
$GPGSV,2,2,08,17,30,095,28,28,26,050,34,05,19,217,13,22,16,320,30*70
$GPRMC,130122.000,A,4849.8533,N,00221.3612,E,8.42,110.99,180806,,*02
$GPVTG,110.99,T,,M,8.42,N,15.6,K*5C
$GPGGA,130123.000,4849.8520,N,00221.3644,E,1,07,2.3,59.8,M,47.3,M,,0000*66
$GPGSA,A,3,26,29,28,09,17,18,22,,,,,,4.3,2.3,3.7*33
$GPGSV,2,1,08,26,65,146,30,29,58,146,29,09,55,280,29,18,36,284,35*77
$GPGSV,2,2,08,17,30,095,28,28,26,050,34,05,19,217,13,22,16,320,32*72
$GPRMC,130123.000,A,4849.8520,N,00221.3644,E,9.06,108.73,180806,,*0E
$GPVTG,108.73,T,,M,9.06,N,16.8,K*5D
$GPGGA,130124.000,4849.8505,N,00221.3681,E,1,07,2.3,59.0,M,47.3,M,,0000*67
$GPGSA,A,3,26,29,28,09,17,18,22,,,,,,4.3,2.3,3.7*33
$GPGSV,2,1,08,26,65,146,32,29,58,146,26,09,55,280,29,18,36,284,35*7A
$GPGSV,2,2,08,17,30,095,35,28,26,050,34,05,19,217,16,22,16,320,35*7C
$GPRMC,130124.000,A,4849.8505,N,00221.3681,E,10.20,115.80,180806,,*3B
$GPVTG,115.80,T,,M,10.20,N,18.9,K*6E
$GPGGA,130125.000,4849.8487,N,00221.3719,E,1,07,2.3,58.4,M,47.3,M,,0000*68
$GPGSA,A,3,26,29,28,09,17,18,22,,,,,,4.3,2.3,3.7*33
$GPGSV,2,1,08,26,65,146,32,29,58,146,25,09,55,280,29,18,36,284,31*7D
$GPGSV,2,2,08,17,30,095,34,28,26,050,29,05,19,217,16,22,16,320,35*71
$GPRMC,130125.000,A,4849.8487,N,00221.3719,E,10.42,120.97,180806,,*35
$GPVTG,120.97,T,,M,10.42,N,19.3,K*61
$GPGGA,130126.000,4849.8467,N,00221.3748,E,1,07,2.3,58.7,M,47.3,M,,0000*62
$GPGSA,A,3,26,29,28,09,17,18,22,,,,,,4.3,2.3,3.7*33
$GPGSV,2,1,08,26,65,146,32,29,58,146,26,09,55,280,32,18,36,284,33*76
$GPGSV,2,2,08,17,30,095,28,28,26,050,25,05,19,217,17,22,16,320,35*71
$GPRMC,130126.000,A,4849.8467,N,00221.3748,E,9.65,130.87,180806,,*01
$GPVTG,130.87,T,,M,9.65,N,17.9,K*58
$GPGGA,130127.000,4849.8449,N,00221.3772,E,1,07,2.3,59.0,M,47.3,M,,0000*60
$GPGSA,A,3,26,29,28,09,17,18,22,,,,,,4.3,2.3,3.7*33
$GPGSV,2,1,08,26,65,146,32,29,58,146,26,09,55,280,33,18,36,284,43*70
$GPGSV,2,2,08,17,30,095,26,28,26,050,28,05,19,217,17,22,16,320,35*72
$GPRMC,130127.000,A,4849.8449,N,00221.3772,E,8.25,140.76,180806,,*09
$GPVTG,140.76,T,,M,8.25,N,15.3,K*5C
$GPGGA,130128.000,4849.8431,N,00221.3786,E,1,07,2.3,59.3,M,47.3,M,,0000*68
$GPGSA,A,3,26,29,28,09,17,18,22,,,,,,4.3,2.3,3.7*33
$GPGSV,2,1,08,26,65,146,32,29,58,146,28,09,55,280,32,18,36,284,43*7F
$GPGSV,2,2,08,17,30,095,27,28,26,050,28,05,19,217,17,22,16,320,36*70
$GPRMC,130128.000,A,4849.8431,N,00221.3786,E,6.26,156.37,180806,,*0D
$GPVTG,156.37,T,,M,6.26,N,11.6,K*52
$GPGGA,130129.000,4849.8417,N,00221.3793,E,1,07,2.3,59.4,M,47.3,M,,0000*6E
$GPGSA,A,3,26,29,28,09,17,18,22,,,,,,4.3,2.3,3.7*33
$GPGSV,2,1,08,26,65,146,32,29,58,146,30,09,55,280,32,18,36,284,42*77
$GPGSV,2,2,08,17,30,095,28,28,26,050,28,05,19,217,17,22,16,320,38*71
$GPRMC,130129.000,A,4849.8417,N,00221.3793,E,3.39,160.92,180806,,*0D
$GPVTG,160.92,T,,M,3.39,N,6.3,K*60
$GPGGA,130130.000,4849.8402,N,00221.3793,E,1,07,2.3,57.4,M,47.3,M,,0000*6C
$GPGSA,A,3,26,29,28,09,17,18,22,,,,,,4.3,2.3,3.7*33
$GPGSV,2,1,08,26,65,146,32,29,58,146,32,09,55,280,32,18,36,284,33*73
$GPGSV,2,2,08,17,30,095,28,28,26,050,28,05,19,217,17,22,16,320,42*7C
$GPRMC,130130.000,A,4849.8402,N,00221.3793,E,1.81,170.29,180806,,*01
$GPVTG,170.29,T,,M,1.81,N,3.4,K*62
$GPGGA,130131.000,4849.8395,N,00221.3792,E,1,07,2.3,56.7,M,47.3,M,,0000*67
$GPGSA,A,3,26,29,28,09,17,18,22,,,,,,4.3,2.3,3.7*33
$GPGSV,2,1,08,26,65,146,32,29,58,146,33,09,55,280,33,18,36,284,30*70
$GPGSV,2,2,08,17,30,095,32,28,26,050,26,05,19,217,16,22,16,320,41*7B
$GPRMC,130131.000,A,4849.8395,N,00221.3792,E,0.99,193.09,180806,,*0F
$GPVTG,193.09,T,,M,0.99,N,1.8,K*6B
$GPGGA,130132.000,4849.8389,N,00221.3791,E,1,07,2.3,55.6,M,47.3,M,,0000*68
$GPGSA,A,3,26,29,28,09,17,18,22,,,,,,4.3,2.3,3.7*33
$GPGSV,2,1,08,26,65,146,32,29,58,146,34,09,55,280,39,18,36,284,30*7D
$GPGSV,2,2,08,17,30,095,32,28,26,050,23,05,19,217,16,22,16,320,41*7E
$GPRMC,130132.000,A,4849.8389,N,00221.3791,E,0.65,196.57,180806,,*0F
$GPVTG,196.57,T,,M,0.65,N,1.2,K*6C
$GPGGA,130133.000,4849.8384,N,00221.3791,E,1,07,2.3,54.6,M,47.3,M,,0000*65
$GPGSA,A,3,26,29,28,09,17,18,22,,,,,,4.3,2.3,3.7*33
$GPGSV,2,1,08,26,65,146,32,29,58,146,34,09,55,280,39,18,36,284,30*7D
$GPGSV,2,2,08,17,30,095,32,28,26,050,24,05,19,217,16,22,16,320,41*79
$GPRMC,130133.000,A,4849.8384,N,00221.3791,E,0.59,189.77,180806,,*00
$GPVTG,189.77,T,,M,0.59,N,1.1,K*6C
$GPGGA,130134.000,4849.8377,N,00221.3789,E,1,07,2.3,53.0,M,47.3,M,,0000*66
$GPGSA,A,3,26,29,28,09,17,18,22,,,,,,4.3,2.3,3.7*33
$GPGSV,2,1,08,26,65,146,26,29,58,146,34,09,55,280,38,18,36,284,30*79
$GPGSV,2,2,08,17,30,095,32,28,26,050,25,05,19,217,15,22,16,320,41*7B
$GPRMC,130134.000,A,4849.8377,N,00221.3789,E,0.84,194.82,180806,,*04
$GPVTG,194.82,T,,M,0.84,N,1.6,K*6D
$GPGGA,130135.000,4849.8373,N,00221.3788,E,1,07,2.3,52.4,M,47.3,M,,0000*67
$GPGSA,A,3,26,29,28,09,17,18,22,,,,,,4.3,2.3,3.7*33
$GPGSV,2,1,08,26,65,146,27,29,58,146,34,09,55,280,38,18,36,284,30*78
$GPGSV,2,2,08,17,30,095,31,28,26,050,26,05,19,217,15,22,16,320,42*78
$GPRMC,130135.000,A,4849.8373,N,00221.3788,E,0.31,175.54,180806,,*0A
$GPVTG,175.54,T,,M,0.31,N,0.6,K*66
$GPGGA,130136.000,4849.8372,N,00221.3790,E,1,06,4.9,51.9,M,47.3,M,,0000*6F
$GPGSA,A,3,26,29,09,17,18,22,,,,,,,7.7,4.9,6.0*30
$GPGSV,2,1,08,26,65,146,30,29,58,146,34,09,55,280,38,18,36,284,30*7E
$GPGSV,2,2,08,17,30,095,31,28,26,050,22,05,19,217,14,22,16,320,42*7D
$GPRMC,130136.000,A,4849.8372,N,00221.3790,E,0.49,185.49,180806,,*0D
$GPVTG,185.49,T,,M,0.49,N,0.9,K*65
$GPGGA,130137.000,4849.8372,N,00221.3793,E,1,07,2.3,51.8,M,47.3,M,,0000*61
$GPGSA,A,3,26,29,28,09,17,18,22,,,,,,4.4,2.3,3.7*34
$GPGSV,2,1,08,26,65,146,31,29,58,146,34,09,55,280,37,18,36,284,29*78
$GPGSV,2,2,08,17,30,095,31,28,26,050,19,05,19,217,14,22,16,320,42*75
$GPRMC,130137.000,A,4849.8372,N,00221.3793,E,0.48,77.93,180806,,*35
$GPVTG,77.93,T,,M,0.48,N,0.9,K*5F
$GPGGA,130138.000,4849.8370,N,00221.3795,E,1,07,2.3,51.0,M,47.3,M,,0000*62
$GPGSA,A,3,26,29,28,09,17,18,22,,,,,,4.4,2.3,3.7*34
$GPGSV,2,1,08,26,65,146,31,29,58,146,34,09,55,280,37,18,36,284,30*70
$GPGSV,2,2,08,17,30,095,27,28,26,050,21,05,19,217,14,22,16,320,42*79
$GPRMC,130138.000,A,4849.8370,N,00221.3795,E,0.33,164.06,180806,,*0D
$GPVTG,164.06,T,,M,0.33,N,0.6,K*63
$GPGGA,130139.000,4849.8364,N,00221.3792,E,1,07,2.3,51.0,M,47.3,M,,0000*61
$GPGSA,A,3,26,29,28,09,17,18,22,,,,,,4.4,2.3,3.7*34
$GPGSV,2,1,08,26,65,146,31,29,58,146,34,09,55,280,32,18,36,284,36*73
$GPGSV,2,2,08,17,30,095,27,28,26,050,25,05,19,217,14,22,16,320,42*7D
$GPRMC,130139.000,A,4849.8364,N,00221.3792,E,1.46,170.30,180806,,*0D
$GPVTG,170.30,T,,M,1.46,N,2.7,K*63
$GPGGA,130140.000,4849.8356,N,00221.3793,E,1,07,2.3,51.4,M,47.3,M,,0000*6B
$GPGSA,A,3,26,29,28,09,17,18,22,,,,,,4.4,2.3,3.7*34
$GPGSV,2,1,08,26,65,146,31,29,58,146,34,09,55,280,27,18,36,284,35*74
$GPGSV,2,2,08,17,30,095,28,28,26,050,27,05,19,217,15,22,16,320,41*72
$GPRMC,130140.000,A,4849.8356,N,00221.3793,E,4.21,159.78,180806,,*00
$GPVTG,159.78,T,,M,4.21,N,7.8,K*6A
$GPGGA,130141.000,4849.8342,N,00221.3802,E,1,07,2.3,52.8,M,47.3,M,,0000*67
$GPGSA,A,3,26,29,28,09,17,18,22,,,,,,4.4,2.3,3.7*34
$GPGSV,2,1,08,26,65,146,32,29,58,146,33,09,55,280,27,18,36,284,34*71
$GPGSV,2,2,08,17,30,095,28,28,26,050,28,05,19,217,15,22,16,320,41*7D
$GPRMC,130141.000,A,4849.8342,N,00221.3802,E,7.70,152.72,180806,,*05
$GPVTG,152.72,T,,M,7.70,N,14.3,K*55
$GPGGA,130142.000,4849.8318,N,00221.3821,E,1,07,2.3,53.5,M,47.3,M,,0000*66
$GPGSA,A,3,26,29,28,09,17,18,22,,,,,,4.4,2.3,3.7*34
$GPGSV,2,1,08,26,65,146,31,29,58,146,33,09,55,280,27,18,36,284,34*72
$GPGSV,2,2,08,17,30,095,21,28,26,050,29,05,19,217,15,22,16,320,38*7B
$GPRMC,130142.000,A,4849.8318,N,00221.3821,E,10.99,158.24,180806,,*30
$GPVTG,158.24,T,,M,10.99,N,20.4,K*6D
$GPGGA,130143.000,4849.8285,N,00221.3842,E,1,07,2.3,53.7,M,47.3,M,,0000*65
$GPGSA,A,3,26,29,28,09,17,18,22,,,,,,4.4,2.3,3.7*34
$GPGSV,2,1,08,26,65,146,31,29,58,146,33,09,55,280,27,18,36,284,35*73
$GPGSV,2,2,08,17,30,095,20,28,26,050,29,05,19,217,16,22,16,320,38*79
$GPRMC,130143.000,A,4849.8285,N,00221.3842,E,13.33,153.77,180806,,*3F
$GPVTG,153.77,T,,M,13.33,N,24.7,K*64
$GPGGA,130144.000,4849.8246,N,00221.3872,E,1,06,3.0,53.4,M,47.3,M,,0000*6E
$GPGSA,A,3,26,29,28,09,18,22,,,,,,,6.1,3.0,5.3*35
$GPGSV,2,1,08,26,65,146,31,29,58,146,33,09,55,280,25,18,36,284,25*70
$GPGSV,2,2,08,17,30,095,19,28,26,050,29,05,19,217,16,22,16,320,36*7D
$GPRMC,130144.000,A,4849.8246,N,00221.3872,E,15.09,148.74,180806,,*32
$GPVTG,148.74,T,,M,15.09,N,28.0,K*69
$GPGGA,130145.000,4849.8207,N,00221.3908,E,1,06,3.0,53.3,M,47.3,M,,0000*61
$GPGSA,A,3,26,29,28,09,18,22,,,,,,,6.1,3.0,5.3*35
$GPGSV,2,1,08,26,65,146,29,29,58,146,27,09,55,280,21,18,36,284,21*7C
$GPGSV,2,2,08,17,30,095,18,28,26,050,23,05,19,217,16,22,16,320,28*79
$GPRMC,130145.000,A,4849.8207,N,00221.3908,E,15.48,144.08,180806,,*38
$GPVTG,144.08,T,,M,15.48,N,28.7,K*6C
$GPGGA,130146.000,4849.8166,N,00221.3952,E,1,06,3.0,52.7,M,47.3,M,,0000*6C
$GPGSA,A,3,26,29,28,09,18,22,,,,,,,6.1,3.0,5.3*35
$GPGSV,2,1,08,26,65,146,28,29,58,146,30,09,55,280,21,18,36,284,20*7A
$GPGSV,2,2,08,17,30,095,18,28,26,050,22,05,19,217,16,22,16,320,27*77
$GPRMC,130146.000,A,4849.8166,N,00221.3952,E,17.38,140.32,180806,,*38
$GPVTG,140.32,T,,M,17.38,N,32.2,K*6A
$GPGGA,130147.000,4849.8118,N,00221.4003,E,1,06,3.0,51.4,M,47.3,M,,0000*6E
$GPGSA,A,3,26,29,28,09,18,22,,,,,,,6.1,3.0,5.3*35
$GPGSV,2,1,08,26,65,146,30,29,58,146,31,09,55,280,21,18,36,284,19*78
$GPGSV,2,2,08,17,30,095,17,28,26,050,22,05,19,217,16,22,16,320,30*7E
$GPRMC,130147.000,A,4849.8118,N,00221.4003,E,20.10,140.33,180806,,*35
$GPVTG,140.33,T,,M,20.10,N,37.2,K*60
$GPGGA,130148.000,4849.8067,N,00221.4061,E,1,05,3.1,50.0,M,47.3,M,,0000*6B
$GPGSA,A,3,26,29,28,09,22,,,,,,,,6.4,3.1,5.5*3E
$GPGSV,2,1,08,26,65,146,30,29,58,146,31,09,55,280,21,18,36,284,19*78
$GPGSV,2,2,08,17,30,095,17,28,26,050,21,05,19,217,16,22,16,320,26*7A
$GPRMC,130148.000,A,4849.8067,N,00221.4061,E,21.93,140.78,180806,,*32
$GPVTG,140.78,T,,M,21.93,N,40.6,K*61
$GPGGA,130149.000,4849.8016,N,00221.4124,E,1,04,3.7,49.2,M,47.3,M,,0000*61
$GPGSA,A,3,26,29,09,22,,,,,,,,,3.8,3.7,1.0*3A
$GPGSV,2,1,08,26,65,146,30,29,58,146,31,09,55,280,22,18,36,284,19*7B
$GPGSV,2,2,08,17,30,095,17,28,26,050,09,05,19,217,16,22,16,320,22*74
$GPRMC,130149.000,A,4849.8016,N,00221.4124,E,22.49,140.85,180806,,*33
$GPVTG,140.85,T,,M,22.49,N,41.6,K*66
$GPGGA,130150.000,4849.7965,N,00221.4191,E,1,05,4.9,47.9,M,47.3,M,,0000*68
$GPGSA,A,3,26,29,09,18,22,,,,,,,,7.9,4.9,6.1*39
$GPGSV,2,1,08,26,65,146,30,29,58,146,31,09,55,280,22,18,36,284,19*7B
$GPGSV,2,2,08,17,30,095,16,28,26,050,10,05,19,217,16,22,16,320,19*75
$GPRMC,130150.000,A,4849.7965,N,00221.4191,E,23.28,140.27,180806,,*39
$GPVTG,140.27,T,,M,23.28,N,43.1,K*6D
$GPGGA,130151.000,4849.7916,N,00221.4259,E,1,05,4.9,47.3,M,47.3,M,,0000*60
$GPGSA,A,3,26,29,09,18,22,,,,,,,,7.9,4.9,6.1*39
$GPGSV,2,1,08,26,65,146,30,29,58,146,31,09,55,280,23,18,36,284,27*77
$GPGSV,2,2,08,17,30,095,16,28,26,050,,05,19,217,16,22,16,320,19*74
$GPRMC,130151.000,A,4849.7916,N,00221.4259,E,22.87,139.02,180806,,*36
$GPVTG,139.02,T,,M,22.87,N,42.4,K*64
$GPGGA,130152.000,4849.7865,N,00221.4334,E,1,05,4.9,45.7,M,47.3,M,,0000*6A
$GPGSA,A,3,26,29,09,18,22,,,,,,,,7.9,4.9,6.1*39
$GPGSV,2,1,08,26,65,146,30,29,58,146,31,09,55,280,23,18,36,284,27*77
$GPGSV,2,2,08,17,30,095,15,28,26,050,,05,19,217,16,22,16,320,19*77
$GPRMC,130152.000,A,4849.7865,N,00221.4334,E,24.32,137.97,180806,,*30
$GPVTG,137.97,T,,M,24.32,N,45.0,K*6D
$GPGGA,130153.000,4849.7812,N,00221.4411,E,1,05,4.9,44.4,M,47.3,M,,0000*69
$GPGSA,A,3,26,29,09,18,22,,,,,,,,7.9,4.9,6.1*39
$GPGSV,2,1,08,26,65,146,30,29,58,146,31,09,55,280,23,18,36,284,27*77
$GPGSV,2,2,08,17,30,095,15,28,26,050,14,05,19,217,16,22,16,320,19*72
$GPRMC,130153.000,A,4849.7812,N,00221.4411,E,25.41,138.28,180806,,*3F
$GPVTG,138.28,T,,M,25.41,N,47.0,K*61
$GPGGA,130154.000,4849.7759,N,00221.4488,E,1,05,4.9,44.1,M,47.3,M,,0000*6B
$GPGSA,A,3,26,29,09,18,22,,,,,,,,7.9,4.9,6.1*39
$GPGSV,2,1,08,26,65,146,30,29,58,146,31,09,55,280,23,18,36,284,27*77
$GPGSV,2,2,08,17,30,095,15,28,26,050,08,05,19,217,16,22,16,320,19*7F
$GPRMC,130154.000,A,4849.7759,N,00221.4488,E,26.52,138.24,180806,,*35
$GPVTG,138.24,T,,M,26.52,N,49.1,K*63
$GPGGA,130155.000,4849.7706,N,00221.4574,E,1,05,4.9,43.3,M,47.3,M,,0000*67
$GPGSA,A,3,26,29,09,18,22,,,,,,,,7.9,4.9,6.1*39
$GPGSV,2,1,08,26,65,146,30,29,58,146,31,09,55,280,23,18,36,284,27*77
$GPGSV,2,2,08,17,30,095,15,28,26,050,,05,19,217,15,22,16,320,19*74
$GPRMC,130155.000,A,4849.7706,N,00221.4574,E,27.00,136.93,180806,,*38
$GPVTG,136.93,T,,M,27.00,N,50.0,K*6E
$GPGGA,130156.000,4849.7653,N,00221.4641,E,1,05,4.9,44.4,M,47.3,M,,0000*60
$GPGSA,A,3,26,29,09,18,22,,,,,,,,7.8,4.9,6.1*38
$GPGSV,2,1,08,26,65,146,30,29,58,146,29,09,55,280,26,18,36,284,27*7B
$GPGSV,2,2,08,17,30,095,15,28,26,050,16,05,19,217,15,22,16,320,19*73
$GPRMC,130156.000,A,4849.7653,N,00221.4641,E,26.63,138.65,180806,,*3C
$GPVTG,138.65,T,,M,26.63,N,49.3,K*66
$GPGGA,130157.000,4849.7621,N,00221.4739,E,1,05,4.9,45.8,M,47.3,M,,0000*67
$GPGSA,A,3,26,29,09,18,22,,,,,,,,7.8,4.9,6.1*38
$GPGSV,2,1,08,26,65,146,30,29,58,146,26,09,55,280,27,18,36,284,27*75
$GPGSV,2,2,08,17,30,095,15,28,26,050,08,05,19,217,15,22,16,320,19*7C
$GPRMC,130157.000,A,4849.7621,N,00221.4739,E,23.11,134.83,180806,,*32
$GPVTG,134.83,T,,M,23.11,N,42.8,K*62
$GPGGA,130158.000,4849.7592,N,00221.4854,E,1,05,4.9,47.4,M,47.3,M,,0000*69
$GPGSA,A,3,26,29,09,18,22,,,,,,,,7.8,4.9,6.1*38
$GPGSV,2,1,08,26,65,146,30,29,58,146,27,09,55,280,22,18,36,284,27*71
$GPGSV,2,2,08,17,30,095,14,28,26,050,07,05,19,217,14,22,16,320,20*79
$GPRMC,130158.000,A,4849.7592,N,00221.4854,E,26.21,130.89,180806,,*3A
$GPVTG,130.89,T,,M,26.21,N,48.5,K*6D
$GPGGA,130159.000,4849.7554,N,00221.4949,E,1,05,4.9,49.2,M,47.3,M,,0000*67
$GPGSA,A,3,26,29,09,18,22,,,,,,,,7.8,4.9,6.1*38
$GPGSV,2,1,08,26,65,146,30,29,58,146,27,09,55,280,18,18,36,284,25*7A
$GPGSV,2,2,08,17,30,095,14,28,26,050,07,05,19,217,14,22,16,320,20*79
$GPRMC,130159.000,A,4849.7554,N,00221.4949,E,28.00,130.13,180806,,*32
$GPVTG,130.13,T,,M,28.00,N,51.8,K*66
$GPGGA,130200.000,4849.7492,N,00221.5003,E,1,05,2.0,50.5,M,47.3,M,,0000*65
$GPGSA,A,3,26,29,17,09,22,,,,,,,,2.2,2.0,1.0*31
$GPGSV,2,1,08,26,65,146,30,29,58,146,28,09,55,280,16,18,36,284,19*74
$GPGSV,2,2,08,17,30,095,28,28,26,050,,05,19,217,13,22,16,320,22*74
$GPRMC,130200.000,A,4849.7492,N,00221.5003,E,27.09,134.92,180806,,*3B
$GPVTG,134.92,T,,M,27.09,N,50.2,K*66
$GPGGA,130201.000,4849.7402,N,00221.5009,E,1,06,2.4,50.9,M,47.3,M,,0000*6C
$GPGSA,A,3,26,29,17,09,28,22,,,,,,,4.7,2.4,4.0*39
$GPGSV,2,1,08,26,65,146,30,29,58,146,28,09,55,280,16,18,36,284,18*75
$GPGSV,2,2,08,17,30,095,21,28,26,050,22,05,19,217,,22,16,320,24*79
$GPRMC,130201.000,A,4849.7402,N,00221.5009,E,24.80,145.55,180806,,*36
$GPVTG,145.55,T,,M,24.80,N,45.9,K*66
$GPGGA,130202.000,4849.7333,N,00221.5075,E,1,06,2.6,52.2,M,47.3,M,,0000*6A
$GPGSA,A,3,26,29,17,28,18,22,,,,,,,5.3,2.6,4.7*39
$GPGSV,2,1,08,26,65,146,31,29,58,146,28,09,55,280,15,18,36,284,18*77
$GPGSV,2,2,08,17,30,095,24,28,26,050,22,05,19,217,,22,16,320,24*7C
$GPRMC,130202.000,A,4849.7333,N,00221.5075,E,27.65,146.31,180806,,*32
$GPVTG,146.31,T,,M,27.65,N,51.2,K*61
$GPGGA,130203.000,4849.7271,N,00221.5133,E,1,07,2.3,52.7,M,47.3,M,,0000*6E
$GPGSA,A,3,26,29,17,09,28,18,22,,,,,,4.4,2.3,3.7*34
$GPGSV,2,1,08,26,65,146,31,29,58,146,28,09,55,280,14,18,36,284,18*76
$GPGSV,2,2,08,17,30,095,24,28,26,050,22,05,19,217,12,22,16,320,24*7F
$GPRMC,130203.000,A,4849.7271,N,00221.5133,E,26.61,148.19,180806,,*36
$GPVTG,148.19,T,,M,26.61,N,49.3,K*68
$GPGGA,130204.000,4849.7216,N,00221.5193,E,1,07,2.3,52.6,M,47.3,M,,0000*63
$GPGSA,A,3,26,29,17,09,28,18,22,,,,,,4.4,2.3,3.7*34
$GPGSV,2,1,08,26,65,146,31,29,58,146,28,09,55,280,14,18,36,284,17*79
$GPGSV,2,2,08,17,30,095,24,28,26,050,21,05,19,217,07,22,16,320,24*78
$GPRMC,130204.000,A,4849.7216,N,00221.5193,E,26.00,149.29,180806,,*3F
$GPVTG,149.29,T,,M,26.00,N,48.2,K*6D
$GPGGA,130205.000,4849.7162,N,00221.5197,E,1,07,2.3,50.7,M,47.3,M,,0000*65
$GPGSA,A,3,26,29,17,09,28,18,22,,,,,,4.4,2.3,3.7*34
$GPGSV,2,1,08,26,65,146,31,29,58,146,28,09,55,280,14,18,36,284,22*7F
$GPGSV,2,2,08,17,30,095,24,28,26,050,21,05,19,217,,22,16,320,23*78
$GPRMC,130205.000,A,4849.7162,N,00221.5197,E,22.80,157.92,180806,,*39
$GPVTG,157.92,T,,M,22.80,N,42.2,K*64
$GPGGA,130206.000,4849.7080,N,00221.5194,E,1,07,2.3,48.9,M,47.3,M,,0000*6F
$GPGSA,A,3,26,29,17,09,28,18,22,,,,,,4.4,2.3,3.7*34
$GPGSV,2,1,08,26,65,146,31,29,58,146,28,09,55,280,14,18,36,284,24*79
$GPGSV,2,2,08,17,30,095,31,28,26,050,29,05,19,217,,22,16,320,23*74
$GPRMC,130206.000,A,4849.7080,N,00221.5194,E,21.86,150.46,180806,,*3F
$GPVTG,150.46,T,,M,21.86,N,40.5,K*6A
$GPGGA,130207.000,4849.6984,N,00221.5148,E,1,06,2.6,51.2,M,47.3,M,,0000*64
$GPGSA,A,3,26,29,17,28,18,22,,,,,,,5.3,2.6,4.7*39
$GPGSV,2,1,08,26,65,146,31,29,58,146,28,09,55,280,14,18,36,284,23*7E
$GPGSV,2,2,08,17,30,095,32,28,26,050,34,05,19,217,,22,16,320,23*7B
$GPRMC,130207.000,A,4849.6984,N,00221.5148,E,20.87,153.42,180806,,*34
$GPVTG,153.42,T,,M,20.87,N,38.6,K*61
$GPGGA,130208.000,4849.6925,N,00221.5147,E,1,06,2.6,53.6,M,47.3,M,,0000*69
$GPGSA,A,3,26,29,17,28,18,22,,,,,,,5.3,2.6,4.7*39
$GPGSV,2,1,08,26,65,146,31,29,58,146,28,09,55,280,14,18,36,284,16*78
$GPGSV,2,2,08,17,30,095,29,28,26,050,30,05,19,217,,22,16,320,23*75
$GPRMC,130208.000,A,4849.6925,N,00221.5147,E,21.97,154.24,180806,,*38
$GPVTG,154.24,T,,M,21.97,N,40.7,K*68
$GPGGA,130209.000,4849.6867,N,00221.5162,E,1,07,2.3,53.9,M,47.3,M,,0000*63
$GPGSA,A,3,26,29,17,09,28,18,22,,,,,,4.4,2.3,3.7*34
$GPGSV,2,1,08,26,65,146,31,29,58,146,23,09,55,280,25,18,36,284,17*70
$GPGSV,2,2,08,17,30,095,28,28,26,050,28,05,19,217,10,22,16,320,24*7B
$GPRMC,130209.000,A,4849.6867,N,00221.5162,E,21.80,156.63,180806,,*3E
$GPVTG,156.63,T,,M,21.80,N,40.4,K*6C
$GPGGA,130210.000,4849.6796,N,00221.5151,E,1,08,1.0,52.0,M,47.3,M,,0000*6D
$GPGSA,A,3,26,29,17,09,28,18,05,22,,,,,2.0,1.0,1.7*31
$GPGSV,2,1,08,26,65,146,32,29,58,146,23,09,55,280,27,18,36,284,37*73
$GPGSV,2,2,08,17,30,095,27,28,26,050,23,05,19,217,16,22,16,320,28*75
$GPRMC,130210.000,A,4849.6796,N,00221.5151,E,20.93,161.97,180806,,*3B
$GPVTG,161.97,T,,M,20.93,N,38.8,K*63
$GPGGA,130211.000,4849.6770,N,00221.5151,E,1,08,1.0,57.8,M,47.3,M,,0000*69
$GPGSA,A,3,26,29,17,09,28,18,05,22,,,,,2.0,1.0,1.7*31
$GPGSV,2,1,08,26,65,146,32,29,58,146,24,09,55,280,28,18,36,284,30*7C
$GPGSV,2,2,08,17,30,095,27,28,26,050,24,05,19,217,18,22,16,320,26*72
$GPRMC,130211.000,A,4849.6770,N,00221.5151,E,17.52,167.38,180806,,*38
$GPVTG,167.38,T,,M,17.52,N,32.4,K*6F
$GPGGA,130212.000,4849.6750,N,00221.5144,E,1,08,1.0,66.2,M,47.3,M,,0000*64
$GPGSA,A,3,26,29,17,09,28,18,05,22,,,,,2.0,1.0,1.7*31
$GPGSV,2,1,08,26,65,146,32,29,58,146,25,09,55,280,28,18,36,284,27*7B
$GPGSV,2,2,08,17,30,095,24,28,26,050,26,05,19,217,17,22,16,320,13*7A
$GPRMC,130212.000,A,4849.6750,N,00221.5144,E,16.28,168.74,180806,,*36
$GPVTG,168.74,T,,M,16.28,N,30.2,K*60
$GPGGA,130213.000,4849.6728,N,00221.5151,E,1,08,1.0,69.4,M,47.3,M,,0000*67
$GPGSA,A,3,26,29,17,09,28,18,05,22,,,,,2.0,1.0,1.7*31
$GPGSV,2,1,08,26,65,146,32,29,58,146,25,09,55,280,29,18,36,284,28*75
$GPGSV,2,2,08,17,30,095,30,28,26,050,26,05,19,217,17,22,16,320,17*7B
$GPRMC,130213.000,A,4849.6728,N,00221.5151,E,13.15,164.52,180806,,*3F
$GPVTG,164.52,T,,M,13.15,N,24.4,K*60
$GPGGA,130214.000,4849.6701,N,00221.5159,E,1,07,2.3,69.2,M,47.3,M,,0000*6A
$GPGSA,A,3,26,29,17,09,28,18,22,,,,,,4.4,2.3,3.8*3B
$GPGSV,2,1,08,26,65,146,32,29,58,146,26,09,55,280,28,18,36,284,32*7C
$GPGSV,2,2,08,17,30,095,31,28,26,050,26,05,19,217,16,22,16,320,17*7B
$GPRMC,130214.000,A,4849.6701,N,00221.5159,E,11.80,156.14,180806,,*36
$GPVTG,156.14,T,,M,11.80,N,21.9,K*65
$GPGGA,130215.000,4849.6680,N,00221.5174,E,1,07,2.3,69.9,M,47.3,M,,0000*67
$GPGSA,A,3,26,29,17,09,28,18,22,,,,,,4.4,2.3,3.8*3B
$GPGSV,2,1,08,26,65,146,32,29,58,146,27,09,55,280,28,18,36,284,29*77
$GPGSV,2,2,08,17,30,095,31,28,26,050,26,05,19,217,16,22,16,320,17*7B
$GPRMC,130215.000,A,4849.6680,N,00221.5174,E,10.18,153.26,180806,,*34
$GPVTG,153.26,T,,M,10.18,N,18.9,K*6B
$GPGGA,130216.000,4849.6659,N,00221.5191,E,1,07,2.3,69.2,M,47.3,M,,0000*60
$GPGSA,A,3,26,29,17,09,28,18,22,,,,,,4.4,2.3,3.8*3B
$GPGSV,2,1,08,26,65,146,32,29,58,146,27,09,55,280,28,18,36,284,23*7D
$GPGSV,2,2,08,17,30,095,31,28,26,050,26,05,19,217,16,22,16,320,16*7A
$GPRMC,130216.000,A,4849.6659,N,00221.5191,E,10.39,152.14,180806,,*3B
$GPVTG,152.14,T,,M,10.39,N,19.2,K*62
$GPGGA,130217.000,4849.6640,N,00221.5213,E,1,07,2.3,69.0,M,47.3,M,,0000*62
$GPGSA,A,3,26,29,17,09,28,18,22,,,,,,4.4,2.3,3.8*3B
$GPGSV,2,1,08,26,64,146,32,29,58,147,27,09,56,280,28,18,36,283,21*7B
$GPGSV,2,2,08,17,30,094,31,28,26,049,29,05,20,217,15,22,16,320,16*75
$GPRMC,130217.000,A,4849.6640,N,00221.5213,E,9.83,153.78,180806,,*09
$GPVTG,153.78,T,,M,9.83,N,18.2,K*51
$GPGGA,130218.000,4849.6620,N,00221.5228,E,1,07,2.3,68.4,M,47.3,M,,0000*66
$GPGSA,A,3,26,29,17,09,28,18,22,,,,,,4.4,2.3,3.8*3B
$GPGSV,2,1,08,26,64,146,32,29,58,147,27,09,56,280,28,18,36,283,21*7B
$GPGSV,2,2,08,17,30,094,29,28,26,049,34,05,20,217,15,22,16,320,15*73
$GPRMC,130218.000,A,4849.6620,N,00221.5228,E,9.24,153.85,180806,,*07
$GPVTG,153.85,T,,M,9.24,N,17.1,K*52
$GPGGA,130219.000,4849.6594,N,00221.5250,E,1,07,2.3,68.8,M,47.3,M,,0000*68
$GPGSA,A,3,26,29,17,09,28,18,22,,,,,,4.4,2.3,3.8*3B
$GPGSV,2,1,08,26,64,146,32,29,58,147,28,09,56,280,25,18,36,283,21*79
$GPGSV,2,2,08,17,30,094,27,28,26,049,33,05,20,217,15,22,16,320,15*7A
$GPRMC,130219.000,A,4849.6594,N,00221.5250,E,12.16,150.71,180806,,*36
$GPVTG,150.71,T,,M,12.16,N,22.5,K*63
$GPGGA,130220.000,4849.6557,N,00221.5283,E,1,07,2.3,67.8,M,47.3,M,,0000*6C
$GPGSA,A,3,26,29,17,09,28,18,22,,,,,,4.4,2.3,3.8*3B
$GPGSV,2,1,08,26,64,146,32,29,58,147,28,09,56,280,24,18,36,283,21*78
$GPGSV,2,2,08,17,30,094,29,28,26,049,33,05,20,217,15,22,16,320,15*74
$GPRMC,130220.000,A,4849.6557,N,00221.5283,E,14.47,150.01,180806,,*38
$GPVTG,150.01,T,,M,14.47,N,26.8,K*6F
$GPGGA,130221.000,4849.6523,N,00221.5324,E,1,07,2.3,68.5,M,47.3,M,,0000*60
$GPGSA,A,3,26,29,17,09,28,18,22,,,,,,4.4,2.3,3.8*3B
$GPGSV,2,1,08,26,64,146,32,29,58,147,28,09,56,280,23,18,36,283,21*7F
$GPGSV,2,2,08,17,30,094,29,28,26,049,33,05,20,217,14,22,16,320,15*75
$GPRMC,130221.000,A,4849.6523,N,00221.5324,E,16.02,147.03,180806,,*31
$GPVTG,147.03,T,,M,16.02,N,29.7,K*68
$GPGGA,130222.000,4849.6490,N,00221.5361,E,1,07,2.3,70.1,M,47.3,M,,0000*66
$GPGSA,A,3,26,29,17,09,28,18,22,,,,,,4.4,2.3,3.8*3B
$GPGSV,2,1,08,26,64,146,32,29,58,147,28,09,56,280,24,18,36,283,21*78
$GPGSV,2,2,08,17,30,094,29,28,26,049,32,05,20,217,14,22,16,320,15*74
$GPRMC,130222.000,A,4849.6490,N,00221.5361,E,15.42,150.70,180806,,*3F
$GPVTG,150.70,T,,M,15.42,N,28.6,K*6D
$GPGGA,130223.000,4849.6462,N,00221.5389,E,1,07,2.3,72.7,M,47.3,M,,0000*68
$GPGSA,A,3,26,29,17,09,28,18,22,,,,,,4.4,2.3,3.8*3B
$GPGSV,2,1,08,26,64,146,32,29,58,147,28,09,56,280,25,18,36,283,21*79
$GPGSV,2,2,08,17,30,094,29,28,26,049,32,05,20,217,14,22,16,320,15*74
$GPRMC,130223.000,A,4849.6462,N,00221.5389,E,14.69,149.91,180806,,*3A
$GPVTG,149.91,T,,M,14.69,N,27.2,K*69
$GPGGA,130224.000,4849.6431,N,00221.5419,E,1,07,2.3,73.5,M,47.3,M,,0000*64
$GPGSA,A,3,26,29,17,09,28,18,22,,,,,,4.4,2.3,3.8*3B
$GPGSV,2,1,08,26,64,146,32,29,58,147,28,09,56,280,25,18,36,283,21*79
$GPGSV,2,2,08,17,30,094,28,28,26,049,28,05,20,217,14,22,16,320,14*7F
$GPRMC,130224.000,A,4849.6431,N,00221.5419,E,15.48,148.22,180806,,*3E
$GPVTG,148.22,T,,M,15.48,N,28.7,K*68
$GPGGA,130225.000,4849.6397,N,00221.5454,E,1,07,2.3,75.0,M,47.3,M,,0000*64
$GPGSA,A,3,26,29,17,09,28,18,22,,,,,,4.4,2.3,3.8*3B
$GPGSV,2,1,08,26,64,146,32,29,58,147,28,09,56,280,25,18,36,283,20*78
$GPGSV,2,2,08,17,30,094,24,28,26,049,30,05,20,217,13,22,16,320,15*7C
$GPRMC,130225.000,A,4849.6397,N,00221.5454,E,17.31,149.67,180806,,*31
$GPVTG,149.67,T,,M,17.31,N,32.1,K*69
$GPGGA,130226.000,4849.6358,N,00221.5486,E,1,07,2.3,74.6,M,47.3,M,,0000*6C
$GPGSA,A,3,26,29,17,09,28,18,22,,,,,,4.4,2.3,3.8*3B
$GPGSV,2,1,08,26,64,146,32,29,58,147,28,09,56,280,25,18,36,283,20*78
$GPGSV,2,2,08,17,30,094,30,28,26,049,30,05,20,217,13,22,16,320,15*79
$GPRMC,130226.000,A,4849.6358,N,00221.5486,E,17.65,151.49,180806,,*3A
$GPVTG,151.49,T,,M,17.65,N,32.7,K*6B
$GPGGA,130227.000,4849.6318,N,00221.5521,E,1,07,2.3,75.2,M,47.3,M,,0000*60
$GPGSA,A,3,26,29,17,09,28,18,22,,,,,,4.4,2.3,3.8*3B
$GPGSV,2,1,08,26,64,146,32,29,58,147,29,09,56,280,25,18,36,283,20*79
$GPGSV,2,2,08,17,30,094,32,28,26,049,30,05,20,217,13,22,16,320,16*78
$GPRMC,130227.000,A,4849.6318,N,00221.5521,E,17.94,147.56,180806,,*34
$GPVTG,147.56,T,,M,17.94,N,33.2,K*68
$GPGGA,130228.000,4849.6277,N,00221.5556,E,1,07,2.3,75.2,M,47.3,M,,0000*67
$GPGSA,A,3,26,29,17,09,28,18,22,,,,,,4.4,2.3,3.8*3B
$GPGSV,2,1,08,26,64,146,32,29,58,147,29,09,56,280,25,18,36,283,27*7E
$GPGSV,2,2,08,17,30,094,32,28,26,049,30,05,20,217,14,22,16,320,16*7F
$GPRMC,130228.000,A,4849.6277,N,00221.5556,E,18.08,151.28,180806,,*37
$GPVTG,151.28,T,,M,18.08,N,33.5,K*6B
$GPGGA,130229.000,4849.6234,N,00221.5585,E,1,07,2.3,74.9,M,47.3,M,,0000*65
$GPGSA,A,3,26,29,17,09,28,18,22,,,,,,4.4,2.3,3.8*3B
$GPGSV,2,1,08,26,64,146,32,29,58,147,29,09,56,280,25,18,36,283,27*7E
$GPGSV,2,2,08,17,30,094,29,28,26,049,30,05,20,217,13,22,16,320,16*72
$GPRMC,130229.000,A,4849.6234,N,00221.5585,E,19.26,153.65,180806,,*39
$GPVTG,153.65,T,,M,19.26,N,35.7,K*69
$GPGGA,130230.000,4849.6198,N,00221.5616,E,1,07,2.3,75.5,M,47.3,M,,0000*6C
$GPGSA,A,3,26,29,17,09,28,18,22,,,,,,4.4,2.3,3.8*3B
$GPGSV,2,1,08,26,64,146,33,29,58,147,29,09,56,280,25,18,36,283,26*7E
$GPGSV,2,2,08,17,30,094,26,28,26,049,30,05,20,217,14,22,16,320,16*7A
$GPRMC,130230.000,A,4849.6198,N,00221.5616,E,17.67,153.12,180806,,*36
$GPVTG,153.12,T,,M,17.67,N,32.7,K*65
$GPGGA,130231.000,4849.6151,N,00221.5643,E,1,07,2.3,75.1,M,47.3,M,,0000*6C
$GPGSA,A,3,26,29,17,09,28,18,22,,,,,,4.4,2.3,3.8*3B
$GPGSV,2,1,08,26,64,146,33,29,58,147,29,09,56,280,25,18,36,283,26*7E
$GPGSV,2,2,08,17,30,094,28,28,26,049,29,05,20,217,13,22,16,320,15*78
$GPRMC,130231.000,A,4849.6151,N,00221.5643,E,18.77,156.52,180806,,*3D
$GPVTG,156.52,T,,M,18.77,N,34.8,K*63
$GPGGA,130232.000,4849.6099,N,00221.5666,E,1,07,2.3,73.3,M,47.3,M,,0000*69
$GPGSA,A,3,26,29,17,09,28,18,22,,,,,,4.4,2.3,3.8*3B
$GPGSV,2,1,08,26,64,146,33,29,58,147,29,09,56,280,26,18,36,283,25*7E
$GPGSV,2,2,08,17,30,094,29,28,26,049,26,05,20,217,13,22,16,320,16*75
$GPRMC,130232.000,A,4849.6099,N,00221.5666,E,17.77,155.83,180806,,*3C
$GPVTG,155.83,T,,M,17.77,N,32.9,K*64
$GPGGA,130233.000,4849.6057,N,00221.5694,E,1,07,2.3,71.6,M,47.3,M,,0000*60
$GPGSA,A,3,26,29,17,09,28,18,22,,,,,,4.4,2.3,3.8*3B
$GPGSV,2,1,08,26,64,146,32,29,58,147,29,09,56,280,28,18,36,283,25*71
$GPGSV,2,2,08,17,30,094,29,28,26,049,26,05,20,217,14,22,16,320,16*72
$GPRMC,130233.000,A,4849.6057,N,00221.5694,E,16.21,151.00,180806,,*3F
$GPVTG,151.00,T,,M,16.21,N,30.0,K*62
$GPGGA,130234.000,4849.6022,N,00221.5726,E,1,06,2.3,72.4,M,47.3,M,,0000*6D
$GPGSA,A,3,26,29,17,09,28,18,,,,,,,4.9,2.3,4.3*3A
$GPGSV,2,1,08,26,64,146,32,29,58,147,29,09,56,280,27,18,36,283,26*7D
$GPGSV,2,2,08,17,30,094,28,28,26,049,26,05,20,217,14,22,16,320,16*73
$GPRMC,130234.000,A,4849.6022,N,00221.5726,E,16.19,150.97,180806,,*36
$GPVTG,150.97,T,,M,16.19,N,30.0,K*66
$GPGGA,130235.000,4849.5985,N,00221.5748,E,1,07,2.3,73.2,M,47.3,M,,0000*65
$GPGSA,A,3,26,29,17,09,28,18,22,,,,,,4.4,2.3,3.8*3B
$GPGSV,2,1,08,26,64,146,32,29,58,147,29,09,56,280,27,18,36,283,26*7D
$GPGSV,2,2,08,17,30,094,25,28,26,049,26,05,20,217,14,22,16,320,24*7F
$GPRMC,130235.000,A,4849.5985,N,00221.5748,E,15.60,159.02,180806,,*30
$GPVTG,159.02,T,,M,15.60,N,28.9,K*6E
$GPGGA,130236.000,4849.5950,N,00221.5757,E,1,07,2.3,74.8,M,47.3,M,,0000*6D
$GPGSA,A,3,26,29,17,09,28,18,22,,,,,,4.4,2.3,3.8*3B
$GPGSV,2,1,08,26,64,146,32,29,58,147,29,09,56,280,28,18,36,283,25*71
$GPGSV,2,2,08,17,30,094,22,28,26,049,27,05,20,217,14,22,16,320,25*78
$GPRMC,130236.000,A,4849.5950,N,00221.5757,E,14.07,166.14,180806,,*3E
$GPVTG,166.14,T,,M,14.07,N,26.1,K*63
$GPGGA,130237.000,4849.5926,N,00221.5766,E,1,07,2.3,77.5,M,47.3,M,,0000*61
$GPGSA,A,3,26,29,17,09,28,18,22,,,,,,4.4,2.3,3.8*3B
$GPGSV,2,1,08,26,64,146,32,29,58,147,29,09,56,280,28,18,36,283,22*76
$GPGSV,2,2,08,17,30,094,23,28,26,049,29,05,20,217,14,22,16,320,24*76
$GPRMC,130237.000,A,4849.5926,N,00221.5766,E,12.05,165.38,180806,,*35
$GPVTG,165.38,T,,M,12.05,N,22.3,K*6C
$GPGGA,130238.000,4849.5895,N,00221.5767,E,1,07,2.3,78.8,M,47.3,M,,0000*64
$GPGSA,A,3,26,29,17,09,28,18,22,,,,,,4.4,2.3,3.8*3B
$GPGSV,2,1,08,26,64,146,33,29,58,147,29,09,56,280,28,18,36,283,28*7D
$GPGSV,2,2,08,17,30,094,23,28,26,049,26,05,20,217,14,22,16,320,24*79
$GPRMC,130238.000,A,4849.5895,N,00221.5767,E,13.04,167.89,180806,,*3A
$GPVTG,167.89,T,,M,13.04,N,24.1,K*60
$GPGGA,130239.000,4849.5860,N,00221.5775,E,1,07,2.3,78.0,M,47.3,M,,0000*64
$GPGSA,A,3,26,29,17,09,28,18,22,,,,,,4.4,2.3,3.8*3B
$GPGSV,2,1,08,26,64,146,33,29,58,147,29,09,56,280,28,18,36,283,38*7C
$GPGSV,2,2,08,17,30,094,23,28,26,049,25,05,20,217,13,22,16,320,24*7D
$GPRMC,130239.000,A,4849.5860,N,00221.5775,E,12.97,165.18,180806,,*33
$GPVTG,165.18,T,,M,12.97,N,24.0,K*60
$GPGGA,130240.000,4849.5823,N,00221.5782,E,1,07,2.3,74.9,M,47.3,M,,0000*60
$GPGSA,A,3,26,29,17,09,28,18,22,,,,,,4.4,2.3,3.8*3B
$GPGSV,2,1,08,26,64,146,33,29,58,147,29,09,56,280,28,18,36,283,38*7C
$GPGSV,2,2,08,17,30,094,27,28,26,049,25,05,20,217,13,22,16,320,24*79
$GPRMC,130240.000,A,4849.5823,N,00221.5782,E,11.23,169.40,180806,,*3F
$GPVTG,169.40,T,,M,11.23,N,20.8,K*61
$GPGGA,130241.000,4849.5795,N,00221.5790,E,1,07,2.3,72.4,M,47.3,M,,0000*6B
$GPGSA,A,3,26,29,17,09,28,18,22,,,,,,4.4,2.3,3.8*3B
$GPGSV,2,1,08,26,64,146,33,29,58,147,29,09,56,280,28,18,36,283,28*7D
$GPGSV,2,2,08,17,30,094,33,28,26,049,24,05,20,217,13,22,16,320,24*7D
$GPRMC,130241.000,A,4849.5795,N,00221.5790,E,9.95,167.53,180806,,*07
$GPVTG,167.53,T,,M,9.95,N,18.4,K*5E
$GPGGA,130242.000,4849.5780,N,00221.5798,E,1,07,2.3,70.4,M,47.3,M,,0000*66
$GPGSA,A,3,26,29,17,09,28,18,22,,,,,,4.4,2.3,3.8*3B
$GPGSV,2,1,08,26,64,146,33,29,58,147,29,09,56,280,28,18,36,283,26*73
$GPGSV,2,2,08,17,30,094,32,28,26,049,24,05,20,217,13,22,16,320,22*7A
$GPRMC,130242.000,A,4849.5780,N,00221.5798,E,6.72,167.31,180806,,*0A
$GPVTG,167.31,T,,M,6.72,N,12.4,K*56
$GPGGA,130243.000,4849.5781,N,00221.5802,E,1,07,2.3,68.8,M,47.3,M,,0000*6F
$GPGSA,A,3,26,29,17,09,28,18,22,,,,,,4.4,2.3,3.8*3B
$GPGSV,2,1,08,26,64,146,33,29,58,147,29,09,56,280,30,18,36,283,26*7A
$GPGSV,2,2,08,17,30,094,33,28,26,049,24,05,20,217,13,22,16,320,21*78
$GPRMC,130243.000,A,4849.5781,N,00221.5802,E,2.78,156.67,180806,,*09
$GPVTG,156.67,T,,M,2.78,N,5.1,K*6A
$GPGGA,130244.000,4849.5778,N,00221.5804,E,1,07,2.3,67.1,M,47.3,M,,0000*6E
$GPGSA,A,3,26,29,17,09,28,18,22,,,,,,4.4,2.3,3.8*3B
$GPGSV,2,1,08,26,64,146,33,29,58,147,29,09,56,280,30,18,36,283,20*7C
$GPGSV,2,2,08,17,30,094,33,28,26,049,24,05,20,217,14,22,16,320,20*7E
$GPRMC,130244.000,A,4849.5778,N,00221.5804,E,1.17,151.72,180806,,*07
$GPVTG,151.72,T,,M,1.17,N,2.2,K*67
$GPGGA,130245.000,4849.5769,N,00221.5805,E,1,07,2.3,62.8,M,47.3,M,,0000*62
$GPGSA,A,3,26,29,17,09,28,18,22,,,,,,4.4,2.3,3.8*3B
$GPGSV,2,1,08,26,64,146,33,29,58,147,27,09,56,280,29,18,36,283,20*7A
$GPGSV,2,2,08,17,30,094,33,28,26,049,24,05,20,217,14,22,16,320,20*7E
$GPRMC,130245.000,A,4849.5769,N,00221.5805,E,0.62,164.36,180806,,*02
$GPVTG,164.36,T,,M,0.62,N,1.1,K*62
$GPGGA,130246.000,4849.5765,N,00221.5811,E,1,07,2.3,61.1,M,47.3,M,,0000*62
$GPGSA,A,3,26,29,17,09,28,18,22,,,,,,4.4,2.3,3.8*3B
$GPGSV,2,1,08,26,64,146,33,29,58,147,28,09,56,280,28,18,36,283,23*77
$GPGSV,2,2,08,17,30,094,33,28,26,049,24,05,20,217,14,22,16,320,21*7F
$GPRMC,130246.000,A,4849.5765,N,00221.5811,E,1.72,166.66,180806,,*0F
$GPVTG,166.66,T,,M,1.72,N,3.2,K*64
$GPGGA,130247.000,4849.5758,N,00221.5817,E,1,07,2.3,60.3,M,47.3,M,,0000*68
$GPGSA,A,3,26,29,17,09,28,18,22,,,,,,4.4,2.3,3.8*3B
$GPGSV,2,1,08,26,64,146,33,29,58,147,28,09,56,280,28,18,36,283,23*77
$GPGSV,2,2,08,17,30,094,33,28,26,049,24,05,20,217,14,22,16,320,21*7F
$GPRMC,130247.000,A,4849.5758,N,00221.5817,E,3.07,160.12,180806,,*03
$GPVTG,160.12,T,,M,3.07,N,5.7,K*62
$GPGGA,130248.000,4849.5753,N,00221.5823,E,1,07,2.3,59.8,M,47.3,M,,0000*6A
$GPGSA,A,3,26,29,17,09,28,18,22,,,,,,4.4,2.3,3.8*3B
$GPGSV,2,1,08,26,64,146,33,29,58,147,28,09,56,280,28,18,36,283,23*77
$GPGSV,2,2,08,17,30,094,33,28,26,049,24,05,20,217,14,22,16,320,21*7F
$GPRMC,130248.000,A,4849.5753,N,00221.5823,E,3.19,163.43,180806,,*08
$GPVTG,163.43,T,,M,3.19,N,5.9,K*64
$GPGGA,130249.000,4849.5749,N,00221.5829,E,1,07,2.3,59.6,M,47.3,M,,0000*64
$GPGSA,A,3,26,29,17,09,28,18,22,,,,,,4.4,2.3,3.8*3B
$GPGSV,2,1,08,26,64,146,33,29,58,147,28,09,56,280,28,18,36,283,23*77
$GPGSV,2,2,08,17,30,094,33,28,26,049,24,05,20,217,14,22,16,320,21*7F
$GPRMC,130249.000,A,4849.5749,N,00221.5829,E,2.51,157.99,180806,,*05
$GPVTG,157.99,T,,M,2.51,N,4.7,K*66
$GPGGA,130250.000,4849.5747,N,00221.5832,E,1,07,2.3,59.0,M,47.3,M,,0000*6E
$GPGSA,A,3,26,29,17,09,28,18,22,,,,,,4.4,2.3,3.8*3B
$GPGSV,2,1,08,26,64,146,33,29,58,147,27,09,56,280,28,18,36,283,23*78
$GPGSV,2,2,08,17,30,094,33,28,26,049,25,05,20,217,14,22,16,320,21*7E
$GPRMC,130250.000,A,4849.5747,N,00221.5832,E,1.42,174.57,180806,,*0B
$GPVTG,174.57,T,,M,1.42,N,2.6,K*63
$GPGGA,130251.000,4849.5750,N,00221.5835,E,1,07,2.3,58.6,M,47.3,M,,0000*69
$GPGSA,A,3,26,29,17,09,28,18,22,,,,,,4.4,2.3,3.8*3B
$GPGSV,2,1,08,26,64,146,33,29,58,147,21,09,56,280,28,18,36,283,23*7E
$GPGSV,2,2,08,17,30,094,33,28,26,049,25,05,20,217,15,22,16,320,21*7F
$GPRMC,130251.000,A,4849.5750,N,00221.5835,E,0.96,204.30,180806,,*06
$GPVTG,204.30,T,,M,0.96,N,1.8,K*63
$GPGGA,130252.000,4849.5758,N,00221.5840,E,1,07,2.3,58.8,M,47.3,M,,0000*6E
$GPGSA,A,3,26,29,17,09,28,18,22,,,,,,4.4,2.3,3.8*3B
$GPGSV,2,1,08,26,64,146,33,29,58,147,22,09,56,280,28,18,36,283,24*7A
$GPGSV,2,2,08,17,30,094,32,28,26,049,25,05,20,217,15,22,16,320,21*7E
$GPRMC,130252.000,A,4849.5758,N,00221.5840,E,0.54,190.28,180806,,*06
$GPVTG,190.28,T,,M,0.54,N,1.0,K*62
$GPGGA,130253.000,4849.5768,N,00221.5846,E,1,07,2.3,59.6,M,47.3,M,,0000*65
$GPGSA,A,3,26,29,17,09,28,18,22,,,,,,4.4,2.3,3.8*3B
$GPGSV,2,1,08,26,64,146,33,29,58,147,23,09,56,280,28,18,36,283,23*7C
$GPGSV,2,2,08,17,30,094,32,28,26,049,25,05,20,217,14,22,16,320,21*7F
$GPRMC,130253.000,A,4849.5768,N,00221.5846,E,0.41,142.40,180806,,*07
$GPVTG,142.40,T,,M,0.41,N,0.8,K*6E
$GPGGA,130254.000,4849.5776,N,00221.5852,E,1,07,2.3,59.7,M,47.3,M,,0000*69
$GPGSA,A,3,26,29,17,09,28,18,22,,,,,,4.4,2.3,3.8*3B
$GPGSV,2,1,08,26,64,146,33,29,58,147,24,09,56,280,28,18,36,283,23*7B
$GPGSV,2,2,08,17,30,094,32,28,26,049,25,05,20,217,14,22,16,320,21*7F
$GPRMC,130254.000,A,4849.5776,N,00221.5852,E,0.79,148.25,180806,,*08
$GPVTG,148.25,T,,M,0.79,N,1.5,K*60
$GPGGA,130255.000,4849.5784,N,00221.5860,E,1,07,2.3,60.9,M,47.3,M,,0000*60
$GPGSA,A,3,26,29,17,09,28,18,22,,,,,,4.4,2.3,3.8*3B
$GPGSV,2,1,08,26,64,146,32,29,58,147,24,09,56,280,28,18,36,283,23*7A
$GPGSV,2,2,08,17,30,094,33,28,26,049,25,05,20,217,14,22,16,320,21*7E
$GPRMC,130255.000,A,4849.5784,N,00221.5860,E,0.18,177.80,180806,,*01
$GPVTG,177.80,T,,M,0.18,N,0.3,K*63
$GPGGA,130256.000,4849.5792,N,00221.5868,E,1,07,2.3,62.2,M,47.3,M,,0000*65
$GPGSA,A,3,26,29,17,09,28,18,22,,,,,,4.4,2.3,3.8*3B
$GPGSV,2,1,08,26,64,146,32,29,58,147,24,09,56,280,28,18,36,283,23*7A
$GPGSV,2,2,08,17,30,094,33,28,26,049,26,05,20,217,15,22,16,320,23*7E
$GPRMC,130256.000,A,4849.5792,N,00221.5868,E,0.42,150.95,180806,,*03
$GPVTG,150.95,T,,M,0.42,N,0.8,K*66
$GPGGA,130257.000,4849.5800,N,00221.5876,E,1,07,2.3,63.9,M,47.3,M,,0000*65
$GPGSA,A,3,26,29,17,09,28,18,22,,,,,,4.4,2.3,3.8*3B
$GPGSV,2,1,08,26,64,146,32,29,58,147,24,09,56,280,29,18,36,283,23*7B
$GPGSV,2,2,08,17,30,094,33,28,26,049,26,05,20,217,15,22,16,320,26*7B
$GPRMC,130257.000,A,4849.5800,N,00221.5876,E,0.31,54.18,180806,,*3D
$GPVTG,54.18,T,,M,0.31,N,0.6,K*5C
$GPGGA,130258.000,4849.5806,N,00221.5882,E,1,07,2.3,64.8,M,47.3,M,,0000*61
$GPGSA,A,3,26,29,17,09,28,18,22,,,,,,4.4,2.3,3.8*3B
$GPGSV,2,1,08,26,64,146,32,29,58,147,24,09,56,280,29,18,36,283,24*7C
$GPGSV,2,2,08,17,30,094,33,28,26,049,26,05,20,217,15,22,16,320,25*78
$GPRMC,130258.000,A,4849.5806,N,00221.5882,E,0.28,296.85,180806,,*0F
$GPVTG,296.85,T,,M,0.28,N,0.5,K*6F
$GPGGA,130259.000,4849.5810,N,00221.5887,E,1,07,2.3,65.9,M,47.3,M,,0000*62
$GPGSA,A,3,26,29,17,09,28,18,22,,,,,,4.4,2.3,3.8*3B
$GPGSV,2,1,08,26,64,146,31,29,58,147,24,09,56,280,29,18,36,283,24*7F
$GPGSV,2,2,08,17,30,094,33,28,26,049,27,05,20,217,15,22,16,320,25*79
$GPRMC,130259.000,A,4849.5810,N,00221.5887,E,0.66,189.71,180806,,*00
$GPVTG,189.71,T,,M,0.66,N,1.2,K*65
$GPGGA,130300.000,4849.5815,N,00221.5893,E,1,07,2.3,67.5,M,47.3,M,,0000*61
$GPGSA,A,3,26,29,17,09,28,18,22,,,,,,4.4,2.3,3.8*3B
$GPGSV,2,1,08,26,64,146,31,29,58,147,24,09,56,280,29,18,36,283,24*7F
$GPGSV,2,2,08,17,30,094,32,28,26,049,27,05,20,217,15,22,16,320,25*78
$GPRMC,130300.000,A,4849.5815,N,00221.5893,E,0.14,49.54,180806,,*32
$GPVTG,49.54,T,,M,0.14,N,0.3,K*5A
$GPGGA,130301.000,4849.5819,N,00221.5900,E,1,07,2.3,69.3,M,47.3,M,,0000*6F
$GPGSA,A,3,26,29,17,09,28,18,22,,,,,,4.4,2.3,3.8*3B
$GPGSV,2,1,08,26,64,146,31,29,58,147,24,09,56,280,30,18,36,283,24*77
$GPGSV,2,2,08,17,30,094,32,28,26,049,27,05,20,217,15,22,16,320,26*7B
$GPRMC,130301.000,A,4849.5819,N,00221.5900,E,0.58,130.33,180806,,*02
$GPVTG,130.33,T,,M,0.58,N,1.1,K*6F
$GPGGA,130302.000,4849.5823,N,00221.5906,E,1,07,2.3,70.7,M,47.3,M,,0000*6F
$GPGSA,A,3,26,29,17,09,28,18,22,,,,,,4.4,2.3,3.8*3B
$GPGSV,2,1,08,26,64,146,31,29,58,147,24,09,56,280,30,18,36,283,24*77
$GPGSV,2,2,08,17,30,094,32,28,26,049,27,05,20,217,15,22,16,320,26*7B
$GPRMC,130302.000,A,4849.5823,N,00221.5906,E,0.62,9.21,180806,,*0F
$GPVTG,9.21,T,,M,0.62,N,1.1,K*6E
$GPGGA,130303.000,4849.5828,N,00221.5913,E,1,07,2.3,72.8,M,47.3,M,,0000*6C
$GPGSA,A,3,26,29,17,09,28,18,22,,,,,,4.4,2.3,3.8*3B
$GPGSV,2,1,08,26,64,146,31,29,58,147,24,09,56,280,30,18,36,283,24*77
$GPGSV,2,2,08,17,30,094,33,28,26,049,28,05,20,217,15,22,16,320,26*75
$GPRMC,130303.000,A,4849.5828,N,00221.5913,E,0.63,29.36,180806,,*34
$GPVTG,29.36,T,,M,0.63,N,1.2,K*58
$GPGGA,130304.000,4849.5830,N,00221.5917,E,1,07,2.3,74.0,M,47.3,M,,0000*68
$GPGSA,A,3,26,29,17,09,28,18,22,,,,,,4.4,2.3,3.8*3B
$GPGSV,2,1,08,26,64,146,31,29,58,147,24,09,56,280,30,18,36,283,24*77
$GPGSV,2,2,08,17,30,094,33,28,26,049,28,05,20,217,16,22,16,320,26*76
$GPRMC,130304.000,A,4849.5830,N,00221.5917,E,0.12,172.27,180806,,*07
$GPVTG,172.27,T,,M,0.12,N,0.2,K*60
$GPGGA,130305.000,4849.5830,N,00221.5919,E,1,07,2.3,74.6,M,47.3,M,,0000*61
$GPGSA,A,3,26,29,17,09,28,18,22,,,,,,4.4,2.3,3.8*3B
$GPGSV,2,1,08,26,64,146,31,29,58,147,24,09,56,280,30,18,36,283,24*77
$GPGSV,2,2,08,17,30,094,33,28,26,049,28,05,20,217,16,22,16,320,26*76
$GPRMC,130305.000,A,4849.5830,N,00221.5919,E,0.61,203.63,180806,,*09
$GPVTG,203.63,T,,M,0.61,N,1.1,K*63
$GPGGA,130306.000,4849.5830,N,00221.5921,E,1,07,2.3,75.3,M,47.3,M,,0000*6D
$GPGSA,A,3,26,29,17,09,28,18,22,,,,,,4.4,2.3,3.8*3B
$GPGSV,2,1,08,26,64,146,31,29,58,147,22,09,56,280,30,18,36,283,23*76
$GPGSV,2,2,08,17,30,094,33,28,26,049,28,05,20,217,16,22,16,320,26*76
$GPRMC,130306.000,A,4849.5830,N,00221.5921,E,0.64,198.41,180806,,*05
$GPVTG,198.41,T,,M,0.64,N,1.2,K*64
$GPGGA,130307.000,4849.5830,N,00221.5921,E,1,07,2.3,75.8,M,47.3,M,,0000*67
$GPGSA,A,3,26,29,17,09,28,18,22,,,,,,4.4,2.3,3.8*3B
$GPGSV,2,1,08,26,64,146,31,29,58,147,21,09,56,280,30,18,36,283,22*74
$GPGSV,2,2,08,17,30,094,33,28,26,049,28,05,20,217,16,22,16,320,26*76
$GPRMC,130307.000,A,4849.5830,N,00221.5921,E,0.21,190.48,180806,,*04
$GPVTG,190.48,T,,M,0.21,N,0.4,K*63
$GPGGA,130308.000,4849.5828,N,00221.5921,E,1,07,2.3,76.0,M,47.3,M,,0000*6A
$GPGSA,A,3,26,29,17,09,28,18,22,,,,,,4.4,2.3,3.8*3B
$GPGSV,2,1,08,26,64,146,30,29,58,147,20,09,56,280,30,18,36,283,19*7C
$GPGSV,2,2,08,17,30,094,33,28,26,049,29,05,20,217,16,22,16,320,26*77
$GPRMC,130308.000,A,4849.5828,N,00221.5921,E,0.58,184.51,180806,,*01
$GPVTG,184.51,T,,M,0.58,N,1.1,K*64
$GPGGA,130309.000,4849.5828,N,00221.5923,E,1,07,2.3,76.6,M,47.3,M,,0000*6F
$GPGSA,A,3,26,29,17,09,28,18,22,,,,,,4.4,2.3,3.8*3B
$GPGSV,2,1,08,26,64,146,31,29,58,147,20,09,56,280,30,18,36,283,18*7C
$GPGSV,2,2,08,17,30,094,33,28,26,049,29,05,20,217,16,22,16,320,26*77
$GPRMC,130309.000,A,4849.5828,N,00221.5923,E,0.60,182.26,180806,,*0F
$GPVTG,182.26,T,,M,0.60,N,1.1,K*69
$GPGGA,130310.000,4849.5827,N,00221.5924,E,1,07,2.3,77.1,M,47.3,M,,0000*69
$GPGSA,A,3,26,29,17,09,28,18,22,,,,,,4.4,2.3,3.8*3B
$GPGSV,2,1,08,26,64,146,31,29,58,147,20,09,56,280,30,18,36,283,19*7D
$GPGSV,2,2,08,17,30,094,34,28,26,049,29,05,20,217,17,22,16,320,26*71
$GPRMC,130310.000,A,4849.5827,N,00221.5924,E,0.28,85.66,180806,,*31
$GPVTG,85.66,T,,M,0.28,N,0.5,K*52
$GPGGA,130311.000,4849.5828,N,00221.5925,E,1,07,2.3,77.4,M,47.3,M,,0000*63
$GPGSA,A,3,26,29,17,09,28,18,22,,,,,,4.4,2.3,3.8*3B
$GPGSV,2,1,08,26,64,146,31,29,58,147,20,09,56,280,30,18,36,283,19*7D
$GPGSV,2,2,08,17,30,094,34,28,26,049,29,05,20,217,17,22,16,320,26*71
$GPRMC,130311.000,A,4849.5828,N,00221.5925,E,0.37,20.45,180806,,*3E
$GPVTG,20.45,T,,M,0.37,N,0.7,K*50
$GPGGA,130312.000,4849.5830,N,00221.5925,E,1,07,2.3,77.9,M,47.3,M,,0000*64
$GPGSA,A,3,26,29,17,09,28,18,22,,,,,,4.4,2.3,3.8*3B
$GPGSV,2,1,08,26,64,146,31,29,58,147,20,09,56,280,30,18,36,283,20*77
$GPGSV,2,2,08,17,30,094,34,28,26,049,30,05,20,217,17,22,16,320,26*79
$GPRMC,130312.000,A,4849.5830,N,00221.5925,E,0.51,4.21,180806,,*00
$GPVTG,4.21,T,,M,0.51,N,0.9,K*6A
$GPGGA,130313.000,4849.5830,N,00221.5924,E,1,07,2.3,77.9,M,47.3,M,,0000*64
$GPGSA,A,3,26,29,17,09,28,18,22,,,,,,4.4,2.3,3.8*3B
$GPGSV,2,1,08,26,64,146,32,29,58,147,21,09,56,280,30,18,36,283,20*75
$GPGSV,2,2,08,17,30,094,34,28,26,049,30,05,20,217,17,22,16,320,26*79
$GPRMC,130313.000,A,4849.5830,N,00221.5924,E,0.30,32.89,180806,,*30
$GPVTG,32.89,T,,M,0.30,N,0.5,K*56
$GPGGA,130314.000,4849.5831,N,00221.5923,E,1,07,2.3,77.7,M,47.3,M,,0000*6B
$GPGSA,A,3,26,29,17,09,28,18,22,,,,,,4.4,2.3,3.8*3B
$GPGSV,2,1,08,26,64,146,32,29,58,147,21,09,56,280,30,18,36,283,21*74
$GPGSV,2,2,08,17,30,094,34,28,26,049,30,05,20,217,18,22,16,320,26*76
$GPRMC,130314.000,A,4849.5831,N,00221.5923,E,0.14,182.52,180806,,*0B
$GPVTG,182.52,T,,M,0.14,N,0.3,K*6A
$GPGGA,130315.000,4849.5833,N,00221.5924,E,1,07,2.3,78.2,M,47.3,M,,0000*65
$GPGSA,A,3,26,29,17,09,28,18,22,,,,,,4.4,2.3,3.8*3B
$GPGSV,2,1,08,26,64,146,32,29,58,147,20,09,56,280,30,18,36,283,21*75
$GPGSV,2,2,08,17,30,094,34,28,26,049,31,05,20,217,18,22,16,320,26*77
$GPRMC,130315.000,A,4849.5833,N,00221.5924,E,0.59,13.07,180806,,*3F
$GPVTG,13.07,T,,M,0.59,N,1.1,K*59
$GPGGA,130316.000,4849.5834,N,00221.5923,E,1,06,2.4,78.0,M,47.3,M,,0000*62
$GPGSA,A,3,26,17,09,28,18,22,,,,,,,4.5,2.4,3.8*36
$GPGSV,2,1,08,26,64,146,32,29,58,147,08,09,56,280,30,18,36,283,21*7F
$GPGSV,2,2,08,17,30,094,34,28,26,049,31,05,20,217,18,22,16,320,25*74
$GPRMC,130316.000,A,4849.5834,N,00221.5923,E,0.39,155.11,180806,,*0E
$GPVTG,155.11,T,,M,0.39,N,0.7,K*6C
$GPGGA,130317.000,4849.5836,N,00221.5924,E,1,06,2.4,78.6,M,47.3,M,,0000*60
$GPGSA,A,3,26,17,09,28,18,22,,,,,,,4.5,2.4,3.8*36
$GPGSV,2,1,08,26,64,147,32,29,57,147,10,09,56,281,30,18,36,283,21*79
$GPGSV,2,2,08,17,30,094,34,28,26,049,31,05,20,218,18,22,16,320,25*7B
$GPRMC,130317.000,A,4849.5836,N,00221.5924,E,0.68,7.11,180806,,*08
$GPVTG,7.11,T,,M,0.68,N,1.3,K*6B
$GPGGA,130318.000,4849.5839,N,00221.5925,E,1,06,2.4,79.1,M,47.3,M,,0000*67
$GPGSA,A,3,26,17,09,28,18,22,,,,,,,4.5,2.4,3.8*36
$GPGSV,2,1,08,26,64,147,32,29,57,147,11,09,56,281,30,18,36,283,21*78
$GPGSV,2,2,08,17,30,094,34,28,26,049,31,05,20,218,18,22,16,320,26*78
$GPRMC,130318.000,A,4849.5839,N,00221.5925,E,0.31,71.12,180806,,*37
$GPVTG,71.12,T,,M,0.31,N,0.6,K*51
$GPGGA,130319.000,4849.5842,N,00221.5927,E,1,07,2.3,80.1,M,47.3,M,,0000*68
$GPGSA,A,3,26,29,17,09,28,18,22,,,,,,4.4,2.3,3.8*3B
$GPGSV,2,1,08,26,64,147,32,29,57,147,12,09,56,281,30,18,36,283,21*7B
$GPGSV,2,2,08,17,30,094,34,28,26,049,31,05,20,218,18,22,16,320,25*7B
$GPRMC,130319.000,A,4849.5842,N,00221.5927,E,0.32,50.92,180806,,*30
$GPVTG,50.92,T,,M,0.32,N,0.6,K*59
$GPGGA,130320.000,4849.5841,N,00221.5925,E,1,07,2.3,79.6,M,47.3,M,,0000*62
$GPGSA,A,3,26,29,17,09,28,18,22,,,,,,4.4,2.3,3.8*3B
$GPGSV,2,1,08,26,64,147,31,29,57,147,13,09,56,281,30,18,36,283,21*79
$GPGSV,2,2,08,17,30,094,34,28,26,049,31,05,20,218,19,22,16,320,25*7A
$GPRMC,130320.000,A,4849.5841,N,00221.5925,E,0.27,5.43,180806,,*03
$GPVTG,5.43,T,,M,0.27,N,0.5,K*62
$GPGGA,130321.000,4849.5842,N,00221.5923,E,1,07,1.1,79.3,M,47.3,M,,0000*62
$GPGSA,A,3,26,29,17,09,28,05,22,,,,,,2.0,1.1,1.7*39
$GPGSV,2,1,08,26,64,147,31,29,57,147,13,09,56,281,30,18,36,283,11*7A
$GPGSV,2,2,08,17,30,094,34,28,26,049,31,05,20,218,19,22,16,320,25*7A
$GPRMC,130321.000,A,4849.5842,N,00221.5923,E,0.18,15.40,180806,,*39
$GPVTG,15.40,T,,M,0.18,N,0.3,K*5A
$GPGGA,130322.000,4849.5843,N,00221.5921,E,1,07,1.1,78.9,M,47.3,M,,0000*69
$GPGSA,A,3,26,29,17,09,28,05,22,,,,,,2.0,1.1,1.7*39
$GPGSV,2,1,08,26,64,147,31,29,57,147,13,09,56,281,30,18,36,283,09*73
$GPGSV,2,2,08,17,30,094,34,28,26,049,31,05,20,218,19,22,16,320,25*7A
$GPRMC,130322.000,A,4849.5843,N,00221.5921,E,0.06,267.85,180806,,*08
$GPVTG,267.85,T,,M,0.06,N,0.1,K*69
$GPGGA,130323.000,4849.5846,N,00221.5921,E,1,08,1.0,79.4,M,47.3,M,,0000*6F
$GPGSA,A,3,26,29,17,09,28,18,05,22,,,,,2.0,1.0,1.7*31
$GPGSV,2,1,08,26,64,147,31,29,57,147,13,09,56,281,30,18,36,283,13*78
$GPGSV,2,2,08,17,30,094,34,28,26,049,31,05,20,218,19,22,16,320,25*7A
$GPRMC,130323.000,A,4849.5846,N,00221.5921,E,0.36,23.15,180806,,*34
$GPVTG,23.15,T,,M,0.36,N,0.7,K*57
$GPGGA,130324.000,4849.5847,N,00221.5919,E,1,08,1.0,78.9,M,47.3,M,,0000*6E
$GPGSA,A,3,26,29,17,09,28,18,05,22,,,,,2.0,1.0,1.7*31
$GPGSV,2,1,08,26,64,147,31,29,57,147,12,09,56,281,30,18,36,283,12*78
$GPGSV,2,2,08,17,30,094,34,28,26,049,31,05,20,218,19,22,16,320,25*7A
$GPRMC,130324.000,A,4849.5847,N,00221.5919,E,0.12,236.34,180806,,*0A
$GPVTG,236.34,T,,M,0.12,N,0.2,K*61
$GPGGA,130325.000,4849.5849,N,00221.5917,E,1,07,1.0,79.0,M,47.3,M,,0000*68
$GPGSA,A,3,26,17,09,28,18,05,22,,,,,,2.1,1.0,1.8*34
$GPGSV,2,1,08,26,64,147,31,29,57,147,13,09,56,281,30,18,36,283,12*79
$GPGSV,2,2,08,17,30,094,34,28,26,049,31,05,20,218,20,22,16,320,26*73
$GPRMC,130325.000,A,4849.5849,N,00221.5917,E,0.59,23.18,180806,,*3C
$GPVTG,23.18,T,,M,0.59,N,1.1,K*54
$GPGGA,130326.000,4849.5849,N,00221.5916,E,1,07,1.1,78.8,M,47.3,M,,0000*62
$GPGSA,A,3,26,29,17,09,28,05,22,,,,,,2.0,1.1,1.7*39
$GPGSV,2,1,08,26,64,147,31,29,57,147,14,09,56,281,30,18,36,283,12*7E
$GPGSV,2,2,08,17,30,094,35,28,26,049,31,05,20,218,20,22,16,320,25*71
$GPRMC,130326.000,A,4849.5849,N,00221.5916,E,0.13,16.85,180806,,*32
$GPVTG,16.85,T,,M,0.13,N,0.2,K*5A
$GPGGA,130327.000,4849.5850,N,00221.5916,E,1,08,1.0,78.8,M,47.3,M,,0000*65
$GPGSA,A,3,26,29,17,09,28,18,05,22,,,,,2.0,1.0,1.7*31
$GPGSV,2,1,08,26,64,147,31,29,57,147,21,09,56,281,30,18,36,283,12*78
$GPGSV,2,2,08,17,30,094,35,28,26,049,31,05,20,218,19,22,16,320,25*7B
$GPRMC,130327.000,A,4849.5850,N,00221.5916,E,0.09,217.44,180806,,*0E
$GPVTG,217.44,T,,M,0.09,N,0.2,K*6F
$GPGGA,130328.000,4849.5850,N,00221.5913,E,1,08,1.0,78.2,M,47.3,M,,0000*65
$GPGSA,A,3,26,29,17,09,28,18,05,22,,,,,2.0,1.0,1.7*31
